{
"type": "FeatureCollection",
"name": "HOTELS",
"crs": { "type": "name", "properties": { "name": "urn:ogc:def:crs:OGC:1.3:CRS84" } },
"features": [
{ "type": "Feature", "properties": { "Name": "Hotel 81 - Gold", "description": "", "HYPERLINK": "hotel81@hotel81.com.sg", "POSTALCODE": "398738", "KEEPERNAME": "Chu Poh Yong", "TOTALROOMS": "98", "ADDRESS": "20 Lorong 20 Geylang", "INC_CRC": "412D36BEFF0E2D10", "FMEL_UPD_D": "20210128110627" }, "geometry": { "type": "Point", "coordinates": [ 103.881122145385007, 1.3119564255497 ] } },
{ "type": "Feature", "properties": { "Name": "Classique Hotel", "description": "", "HYPERLINK": "reservations@classiquehotel.com.sg", "POSTALCODE": "208913", "KEEPERNAME": "Ang Beng MAY", "TOTALROOMS": "42", "ADDRESS": "240 Jalan Besar , # 01-01", "INC_CRC": "3C427F683C0D0D2E", "FMEL_UPD_D": "20210128110627" }, "geometry": { "type": "Point", "coordinates": [ 103.858161756640001, 1.30942994343081 ] } },
{ "type": "Feature", "properties": { "Name": "COLLER BOUTIQUE HOSTEL", "description": "", "HYPERLINK": "", "POSTALCODE": "169056", "KEEPERNAME": "KHOO HOCK CHYE", "TOTALROOMS": "11", "ADDRESS": "259 OUTRAM ROAD", "INC_CRC": "E73470306E8D3344", "FMEL_UPD_D": "20210128110627" }, "geometry": { "type": "Point", "coordinates": [ 103.834726678246994, 1.28500519507722 ] } },
{ "type": "Feature", "properties": { "Name": "Concorde Hotel Singapore", "description": "", "HYPERLINK": "singapore@concorde.net", "POSTALCODE": "238840", "KEEPERNAME": "Karl Lee Muir", "TOTALROOMS": "418", "ADDRESS": "100 Orchard Road", "INC_CRC": "F159AF5E324D56DB", "FMEL_UPD_D": "20210128110627" }, "geometry": { "type": "Point", "coordinates": [ 103.842228053203996, 1.30061437146928 ] } },
{ "type": "Feature", "properties": { "Name": "Conrad Centennial Singapore", "description": "", "HYPERLINK": "sinci_acc@conradhotels.com", "POSTALCODE": "38982", "KEEPERNAME": "Peter Toi", "TOTALROOMS": "512", "ADDRESS": "2 Temasek Boulevard", "INC_CRC": "B345D633745337B5", "FMEL_UPD_D": "20210128110627" }, "geometry": { "type": "Point", "coordinates": [ 103.858774751330003, 1.29352504343592 ] } },
{ "type": "Feature", "properties": { "Name": "Copthorne King Hotel Singapore", "description": "", "HYPERLINK": "rooms@copthornekings.com.sg", "POSTALCODE": "169632", "KEEPERNAME": "Yeoh Cheng Kung", "TOTALROOMS": "313", "ADDRESS": "403 Havelock Road", "INC_CRC": "AC71C768A70E334B", "FMEL_UPD_D": "20210128110627" }, "geometry": { "type": "Point", "coordinates": [ 103.836642496764, 1.28825959921985 ] } },
{ "type": "Feature", "properties": { "Name": "Courtyard By Marriott Singapore Novena", "description": "", "HYPERLINK": "", "POSTALCODE": "329568", "KEEPERNAME": "Khong Cheng Hoe Peter", "TOTALROOMS": "250", "ADDRESS": "99 IRRAWADDY ROAD, # 22-00 ROYAL SQUARE AT NOVENA", "INC_CRC": "5610EBA03AB6F4B4", "FMEL_UPD_D": "20210128110627" }, "geometry": { "type": "Point", "coordinates": [ 103.843165090043996, 1.32059476707049 ] } },
{ "type": "Feature", "properties": { "Name": "AL Asia Hotel", "description": "", "HYPERLINK": "", "POSTALCODE": "389447", "KEEPERNAME": "Lim Siew Iy @ Lim Siew Ching", "TOTALROOMS": "16", "ADDRESS": "488 GEYLANG ROAD", "INC_CRC": "C7D6BD8F9A1D3615", "FMEL_UPD_D": "20210128110627" }, "geometry": { "type": "Point", "coordinates": [ 103.884680930299993, 1.31324104846934 ] } },
{ "type": "Feature", "properties": { "Name": "Crockfords Tower", "description": "", "HYPERLINK": "enquires@rwsentosa.com", "POSTALCODE": "98270", "KEEPERNAME": "Johansson Jan Fredrik", "TOTALROOMS": "121", "ADDRESS": "10 Sentosa Gateway", "INC_CRC": "373665F55BDA9307", "FMEL_UPD_D": "20210128110627" }, "geometry": { "type": "Point", "coordinates": [ 103.819279861729001, 1.25593387293635 ] } },
{ "type": "Feature", "properties": { "Name": "Crowne Plaza Changi Airport", "description": "", "HYPERLINK": "sincp@ihg.com", "POSTALCODE": "819664", "KEEPERNAME": "Cristol Bruno Olivier", "TOTALROOMS": "563", "ADDRESS": "75 Airport Boulevard", "INC_CRC": "AF34378EAA44E3DD", "FMEL_UPD_D": "20210128110627" }, "geometry": { "type": "Point", "coordinates": [ 103.987947172551998, 1.35868034734966 ] } },
{ "type": "Feature", "properties": { "Name": "Cube @ Kampong Glam", "description": "", "HYPERLINK": "", "POSTALCODE": "199471", "KEEPERNAME": "SONIA TAY MING HUI", "TOTALROOMS": "7", "ADDRESS": "55 BUSSORAH STREET", "INC_CRC": "AA379FBC613AD712", "FMEL_UPD_D": "20210128110627" }, "geometry": { "type": "Point", "coordinates": [ 103.859372517721994, 1.30162127482298 ] } },
{ "type": "Feature", "properties": { "Name": "CUBE @ smith street", "description": "", "HYPERLINK": "", "POSTALCODE": "58971", "KEEPERNAME": "TAY MING HUI SONIA", "TOTALROOMS": "7", "ADDRESS": "76A SMITH STREET", "INC_CRC": "10C6ADD5F223675C", "FMEL_UPD_D": "20210128110627" }, "geometry": { "type": "Point", "coordinates": [ 103.843006363678995, 1.28316218264506 ] } },
{ "type": "Feature", "properties": { "Name": "Cube Family Boutique Capsule Hotel @ Chinatown", "description": "", "HYPERLINK": "booking@yeschinatownpoint.com", "POSTALCODE": "58967", "KEEPERNAME": "TAY MING HUI SONIA", "TOTALROOMS": "24", "ADDRESS": "68A Smith Street", "INC_CRC": "2440729DA9DCF732", "FMEL_UPD_D": "20210128110627" }, "geometry": { "type": "Point", "coordinates": [ 103.843161495087003, 1.28303982961697 ] } },
{ "type": "Feature", "properties": { "Name": "D'Hotel", "description": "", "HYPERLINK": "", "POSTALCODE": "169040", "KEEPERNAME": "WONG MEI LING JUDY", "TOTALROOMS": "41", "ADDRESS": "231 OUTRAM ROAD WANGZ HOTEL", "INC_CRC": "C6CED90C8AD1CEA6", "FMEL_UPD_D": "20210128110627" }, "geometry": { "type": "Point", "coordinates": [ 103.835010068250995, 1.284322066591 ] } },
{ "type": "Feature", "properties": { "Name": "Darlene Hotel (Geylang)", "description": "", "HYPERLINK": "darlenehotel@gmail.com", "POSTALCODE": "399096", "KEEPERNAME": "Teh Gek Keng", "TOTALROOMS": "62", "ADDRESS": "32 Lorong 8 Geylang", "INC_CRC": "9F37B2920EA15700", "FMEL_UPD_D": "20210128110627" }, "geometry": { "type": "Point", "coordinates": [ 103.876969902659994, 1.31090126773808 ] } },
{ "type": "Feature", "properties": { "Name": "Days Hotel Singapore At Zhongshan Park", "description": "", "HYPERLINK": "info@dayshotelsingapore.com", "POSTALCODE": "329133", "KEEPERNAME": "Tony John Cousens", "TOTALROOMS": "405", "ADDRESS": "1 Jalan Rajah", "INC_CRC": "C56F326E58E1F03C", "FMEL_UPD_D": "20210128110627" }, "geometry": { "type": "Point", "coordinates": [ 103.847365855383003, 1.32697770059675 ] } },
{ "type": "Feature", "properties": { "Name": "Destination Singapore Beach Road", "description": "", "HYPERLINK": "Beelay.Pua@yourdestinationhotel.com", "POSTALCODE": "199598", "KEEPERNAME": "Steven Tang", "TOTALROOMS": "300", "ADDRESS": "700 BEACH ROAD 700 BEACH", "INC_CRC": "122395C0A3F52261", "FMEL_UPD_D": "20210128110627" }, "geometry": { "type": "Point", "coordinates": [ 103.864169303073993, 1.30236655161917 ] } },
{ "type": "Feature", "properties": { "Name": "Diamond Hotel", "description": "", "HYPERLINK": "diamondhotelreservations@gmail.com", "POSTALCODE": "398806", "KEEPERNAME": "Tan Hui Sion", "TOTALROOMS": "42", "ADDRESS": "25 Lorong 18 Geylang", "INC_CRC": "17422EA029290C65", "FMEL_UPD_D": "20210128110627" }, "geometry": { "type": "Point", "coordinates": [ 103.880838668454004, 1.31186042184822 ] } },
{ "type": "Feature", "properties": { "Name": "Dorsett Singapore", "description": "", "HYPERLINK": "info.singapore@dorsetthotels.com", "POSTALCODE": "88765", "KEEPERNAME": "Khoo Lee Ping Jessie", "TOTALROOMS": "285", "ADDRESS": "333 New Bridge Road", "INC_CRC": "544E8182666D9389", "FMEL_UPD_D": "20210128110627" }, "geometry": { "type": "Point", "coordinates": [ 103.840007598921005, 1.27962668340609 ] } },
{ "type": "Feature", "properties": { "Name": "Dusit Thani Laguna Singapore", "description": "", "HYPERLINK": "", "POSTALCODE": "488047", "KEEPERNAME": "Piatti Eric Michel", "TOTALROOMS": "198", "ADDRESS": "11 LAGUNA GOLF GREEN LAGUNA NATIONAL GOLF &amp; COUNTRY CLUB", "INC_CRC": "BC13D10279645551", "FMEL_UPD_D": "20210128110627" }, "geometry": { "type": "Point", "coordinates": [ 103.962657084899007, 1.32397331115705 ] } },
{ "type": "Feature", "properties": { "Name": "Duxton Reserve", "description": "", "HYPERLINK": "", "POSTALCODE": "89540", "KEEPERNAME": "Harpreet Kaur Bedi", "TOTALROOMS": "49", "ADDRESS": "83 Duxton Road", "INC_CRC": "62177A4089D486B1", "FMEL_UPD_D": "20210128110627" }, "geometry": { "type": "Point", "coordinates": [ 103.843187860265999, 1.27887034636785 ] } },
{ "type": "Feature", "properties": { "Name": "EIGHTEEN BY THREE CABINS", "description": "", "HYPERLINK": "k.yap@18by3.com", "POSTALCODE": "68722", "KEEPERNAME": "Lim Keong Wee", "TOTALROOMS": "18", "ADDRESS": "3 STANLEY STREET", "INC_CRC": "21EE5FC68D6045AF", "FMEL_UPD_D": "20210128110627" }, "geometry": { "type": "Point", "coordinates": [ 103.847645143300994, 1.27987745135108 ] } },
{ "type": "Feature", "properties": { "Name": "Equarius Hotel", "description": "", "HYPERLINK": "enquiries@rwsentosa.com", "POSTALCODE": "98133", "KEEPERNAME": "Johansson Jan Fredrik", "TOTALROOMS": "183", "ADDRESS": "16 Sentosa Gateway", "INC_CRC": "232A2F5FFC9FE92D", "FMEL_UPD_D": "20210128110627" }, "geometry": { "type": "Point", "coordinates": [ 103.816896687818002, 1.25767113430044 ] } },
{ "type": "Feature", "properties": { "Name": "Fairmont, Singapore", "description": "", "HYPERLINK": "singapore@fairmont.com", "POSTALCODE": "189560", "KEEPERNAME": "Marcus Moris Hanna", "TOTALROOMS": "772", "ADDRESS": "80 Bras Basah Road", "INC_CRC": "64140E184305FFB3", "FMEL_UPD_D": "20210128110627" }, "geometry": { "type": "Point", "coordinates": [ 103.853331832592005, 1.2940764375654 ] } },
{ "type": "Feature", "properties": { "Name": "five\/6 Hotel Splendour", "description": "", "HYPERLINK": "", "POSTALCODE": "399167", "KEEPERNAME": "Teo Chou Chun", "TOTALROOMS": "71", "ADDRESS": "5 LORONG 6 GEYLANG", "INC_CRC": "D0F89133A1214EA9", "FMEL_UPD_D": "20210128110627" }, "geometry": { "type": "Point", "coordinates": [ 103.876690711172998, 1.31090999883113 ] } },
{ "type": "Feature", "properties": { "Name": "Footprints Hostel", "description": "", "HYPERLINK": "footprints_hostel@hotmail.com", "POSTALCODE": "208136", "KEEPERNAME": "Di Haifeng", "TOTALROOMS": "22", "ADDRESS": "25A Perak Road  , # 01-01", "INC_CRC": "6843D3169C6FA9CF", "FMEL_UPD_D": "20210128110627" }, "geometry": { "type": "Point", "coordinates": [ 103.854064077296002, 1.30549416858953 ] } },
{ "type": "Feature", "properties": { "Name": "Fortuna Hotel", "description": "", "HYPERLINK": "reservations@fortunahotel.com.sg", "POSTALCODE": "218842", "KEEPERNAME": "Chong Hiew Kwang", "TOTALROOMS": "105", "ADDRESS": "2 Owen Road", "INC_CRC": "4DC1FFEF67AAC417", "FMEL_UPD_D": "20210128110627" }, "geometry": { "type": "Point", "coordinates": [ 103.854953210301005, 1.31170732725136 ] } },
{ "type": "Feature", "properties": { "Name": "Four Chain View Hotel", "description": "", "HYPERLINK": "fchain@fourchain.com.sg", "POSTALCODE": "389659", "KEEPERNAME": "Ng Ah Hoi", "TOTALROOMS": "44", "ADDRESS": "757 Geylang Road", "INC_CRC": "D0D43E25D65EDFE9", "FMEL_UPD_D": "20210128110627" }, "geometry": { "type": "Point", "coordinates": [ 103.890924420622, 1.31502461447216 ] } },
{ "type": "Feature", "properties": { "Name": "Four Points by Sheraton Singapore, Riverview", "description": "", "HYPERLINK": "finance@fourpointssingaporeriverview.com", "POSTALCODE": "169629", "KEEPERNAME": "Yeo Khee Boon, Felix", "TOTALROOMS": "476", "ADDRESS": "382 Havelock Road", "INC_CRC": "BA667761552B0F8A", "FMEL_UPD_D": "20210128110627" }, "geometry": { "type": "Point", "coordinates": [ 103.836603813300997, 1.28937098412522 ] } },
{ "type": "Feature", "properties": { "Name": "Four Seasons Hotel", "description": "", "HYPERLINK": "", "POSTALCODE": "248646", "KEEPERNAME": "DRAMINSKY PETER CHRISTIAN", "TOTALROOMS": "259", "ADDRESS": "190 Orchard Boulevard", "INC_CRC": "20843A22330FB9E2", "FMEL_UPD_D": "20210128110627" }, "geometry": { "type": "Point", "coordinates": [ 103.828652722778997, 1.30521021365117 ] } },
{ "type": "Feature", "properties": { "Name": "Fragrance Hotel - Balestier", "description": "", "HYPERLINK": "contact@fragrancehotel.com", "POSTALCODE": "329710", "KEEPERNAME": "SUN YI", "TOTALROOMS": "48", "ADDRESS": "255 Balestier Road", "INC_CRC": "8531B2A830493742", "FMEL_UPD_D": "20210128110627" }, "geometry": { "type": "Point", "coordinates": [ 103.852659081425003, 1.32197356951014 ] } },
{ "type": "Feature", "properties": { "Name": "Vintage Inn@Clarke Quay", "description": "", "HYPERLINK": "", "POSTALCODE": "59672", "KEEPERNAME": "HO TING CHEE", "TOTALROOMS": "5", "ADDRESS": "33 HONGKONG STREET, # 3-33B", "INC_CRC": "507C9909B9CA8A8C", "FMEL_UPD_D": "20210128110627" }, "geometry": { "type": "Point", "coordinates": [ 103.847112672324997, 1.28741331170278 ] } },
{ "type": "Feature", "properties": { "Name": "Fragrance Hotel - Kovan", "description": "", "HYPERLINK": "contact@fragrancehotel.com", "POSTALCODE": "534629", "KEEPERNAME": "SUN YI", "TOTALROOMS": "43", "ADDRESS": "760 Upper Serangoon Road", "INC_CRC": "D4736F73314509FD", "FMEL_UPD_D": "20210128110627" }, "geometry": { "type": "Point", "coordinates": [ 103.878733101612994, 1.35406396857103 ] } },
{ "type": "Feature", "properties": { "Name": "Fragrance Hotel - Lavender", "description": "", "HYPERLINK": "contact@fragrancehotel.com", "POSTALCODE": "338710", "KEEPERNAME": "Sun Yi", "TOTALROOMS": "35", "ADDRESS": "51 Lavender Street", "INC_CRC": "4635D5C533AB9359", "FMEL_UPD_D": "20210128110627" }, "geometry": { "type": "Point", "coordinates": [ 103.863070799569002, 1.30978959074307 ] } },
{ "type": "Feature", "properties": { "Name": "Fragrance Hotel - Oasis", "description": "", "HYPERLINK": "contact@fragrancehotel.com", "POSTALCODE": "329816", "KEEPERNAME": "SUN YI", "TOTALROOMS": "36", "ADDRESS": "435 Balestier Road", "INC_CRC": "FD5312B946C9B885", "FMEL_UPD_D": "20210128110627" }, "geometry": { "type": "Point", "coordinates": [ 103.848605457803004, 1.32588609260467 ] } },
{ "type": "Feature", "properties": { "Name": "Fragrance Hotel - Ocean View", "description": "", "HYPERLINK": "contact@fragrancehotel.com", "POSTALCODE": "118773", "KEEPERNAME": "Sun Yi", "TOTALROOMS": "47", "ADDRESS": "432 Pasir Panjang Road", "INC_CRC": "45B8CB84B412DE7F", "FMEL_UPD_D": "20210128110627" }, "geometry": { "type": "Point", "coordinates": [ 103.768512802074, 1.29241376307725 ] } },
{ "type": "Feature", "properties": { "Name": "Fragrance Hotel - Rose", "description": "", "HYPERLINK": "contact@fragrancehotel.com", "POSTALCODE": "329715", "KEEPERNAME": "Sun Yi", "TOTALROOMS": "68", "ADDRESS": "263 Balestier Road", "INC_CRC": "A4679646C54FA4E0", "FMEL_UPD_D": "20210128110627" }, "geometry": { "type": "Point", "coordinates": [ 103.852564813209995, 1.32207178695444 ] } },
{ "type": "Feature", "properties": { "Name": "Fragrance Hotel - Viva", "description": "", "HYPERLINK": "contact@fragrancehotel.com", "POSTALCODE": "98721", "KEEPERNAME": "Sun Yi", "TOTALROOMS": "33", "ADDRESS": "75 Wishart Road", "INC_CRC": "577F6AF7F6C5259F", "FMEL_UPD_D": "20210128110627" }, "geometry": { "type": "Point", "coordinates": [ 103.813969784210997, 1.26988806613339 ] } },
{ "type": "Feature", "properties": { "Name": "Furama City Centre Singapore", "description": "", "HYPERLINK": "financemgr.fcc@furama.com", "POSTALCODE": "59804", "KEEPERNAME": "Ng Wei Yong", "TOTALROOMS": "445", "ADDRESS": "60 Eu Tong Sen Street", "INC_CRC": "53FD02980AA77792", "FMEL_UPD_D": "20210128110627" }, "geometry": { "type": "Point", "coordinates": [ 103.844588552747993, 1.28647356154828 ] } },
{ "type": "Feature", "properties": { "Name": "Golden Royal Hotel", "description": "", "HYPERLINK": "eugene@goldenroyal-hotel.com", "POSTALCODE": "209645", "KEEPERNAME": "Ee Kee Chai", "TOTALROOMS": "54", "ADDRESS": "51 Desker Road", "INC_CRC": "73DBAFAC5FE99362", "FMEL_UPD_D": "20210128110627" }, "geometry": { "type": "Point", "coordinates": [ 103.855250945611999, 1.30914206986635 ] } },
{ "type": "Feature", "properties": { "Name": "G4 Station Backpackers Hostel", "description": "", "HYPERLINK": "info@g4station.com", "POSTALCODE": "228675", "KEEPERNAME": "Lee Fut Hua", "TOTALROOMS": "23", "ADDRESS": "11 Mackenzie Road", "INC_CRC": "687BF6B7DA138240", "FMEL_UPD_D": "20210128110627" }, "geometry": { "type": "Point", "coordinates": [ 103.849908920215, 1.3043490812321 ] } },
{ "type": "Feature", "properties": { "Name": "GALLOP CHANGI BEACH RESORT", "description": "", "HYPERLINK": "", "POSTALCODE": "509671", "KEEPERNAME": "MANIMAHALAI D\/O CHAKRAPANI", "TOTALROOMS": "40", "ADDRESS": "49 HENDON ROAD", "INC_CRC": "9D3E18D1A9DEAF28", "FMEL_UPD_D": "20210128110627" }, "geometry": { "type": "Point", "coordinates": [ 103.980568397631998, 1.38894206635745 ] } },
{ "type": "Feature", "properties": { "Name": "GALLOP HILL TOP RESORT", "description": "", "HYPERLINK": "enquiry@gallopresort.com", "POSTALCODE": "287992", "KEEPERNAME": "MANIMAHALAI D\/O CHAKRAPANI", "TOTALROOMS": "40", "ADDRESS": "100 TURF CLUB ROAD", "INC_CRC": "70F5E6522CC16FBF", "FMEL_UPD_D": "20210128110627" }, "geometry": { "type": "Point", "coordinates": [ 103.795854254263006, 1.33434829779462 ] } },
{ "type": "Feature", "properties": { "Name": "GALLOP KRANJI FARM RESORT", "description": "", "HYPERLINK": "enquiry@gallopresort.com", "POSTALCODE": "718813", "KEEPERNAME": "MANIMAHALAI D\/O CHAKRAPANI", "TOTALROOMS": "37", "ADDRESS": "10 NEO TIEW LANE 2 D' KRANJI FARM RESORT", "INC_CRC": "C46B5294DFE0E694", "FMEL_UPD_D": "20210128110627" }, "geometry": { "type": "Point", "coordinates": [ 103.718425687866997, 1.41927815815058 ] } },
{ "type": "Feature", "properties": { "Name": "Gap Year Hostel", "description": "", "HYPERLINK": "gapyearhostel@gmail.com", "POSTALCODE": "338821", "KEEPERNAME": "Yee Seng Fu", "TOTALROOMS": "7", "ADDRESS": "322 Lavender Street", "INC_CRC": "39C5367D3D0CA169", "FMEL_UPD_D": "20210128110627" }, "geometry": { "type": "Point", "coordinates": [ 103.859427833289004, 1.31564004044032 ] } },
{ "type": "Feature", "properties": { "Name": "Gay World Hotel", "description": "", "HYPERLINK": "", "POSTALCODE": "389218", "KEEPERNAME": "Seah Ming Kwong", "TOTALROOMS": "27", "ADDRESS": "115 Geylang Road", "INC_CRC": "4AA0EEBB872A16F9", "FMEL_UPD_D": "20210128110627" }, "geometry": { "type": "Point", "coordinates": [ 103.873741281934002, 1.31119516204353 ] } },
{ "type": "Feature", "properties": { "Name": "Genting Hotel Jurong", "description": "", "HYPERLINK": "enquiries@rwsentosa.com", "POSTALCODE": "608516", "KEEPERNAME": "Johansson Jan Fredrik", "TOTALROOMS": "557", "ADDRESS": "2 Town Hall Link", "INC_CRC": "686D365D6794757B", "FMEL_UPD_D": "20210128110627" }, "geometry": { "type": "Point", "coordinates": [ 103.739259626277999, 1.33156162898379 ] } },
{ "type": "Feature", "properties": { "Name": "GOLDEN HOSTEL", "description": "", "HYPERLINK": "", "POSTALCODE": "160146", "KEEPERNAME": "Tham Keng Pong", "TOTALROOMS": "7", "ADDRESS": "146 JALAN BUKIT MERAH, # 01-1088", "INC_CRC": "83EE621BBFF77A54", "FMEL_UPD_D": "20210128110627" }, "geometry": { "type": "Point", "coordinates": [ 103.830811464544993, 1.27784875913754 ] } },
{ "type": "Feature", "properties": { "Name": "Golden Star Hotel", "description": "", "HYPERLINK": "goldenstarhotel@yahoo.com.sg", "POSTALCODE": "399095", "KEEPERNAME": "Timothy Seah How Ming", "TOTALROOMS": "43", "ADDRESS": "31 Lorong 8 Geylang", "INC_CRC": "31835167831920D5", "FMEL_UPD_D": "20210128110627" }, "geometry": { "type": "Point", "coordinates": [ 103.877336359037997, 1.31076953969736 ] } },
{ "type": "Feature", "properties": { "Name": "Goodwood Park Hotel", "description": "", "HYPERLINK": "enquiries@goodwoodparkhotel.com.sg", "POSTALCODE": "228221", "KEEPERNAME": "Khoo Bee Geok, Mavis", "TOTALROOMS": "233", "ADDRESS": "22 Scotts Road", "INC_CRC": "0CB42F3CAFB966B5", "FMEL_UPD_D": "20210128110627" }, "geometry": { "type": "Point", "coordinates": [ 103.834109068629999, 1.30822214594427 ] } },
{ "type": "Feature", "properties": { "Name": "Grand Copthorne Waterfront Hotel Singapore", "description": "", "HYPERLINK": "enquiry.gcw@millenniumhotels.com", "POSTALCODE": "169663", "KEEPERNAME": "LEE RICHARDS", "TOTALROOMS": "574", "ADDRESS": "392 Havelock Road", "INC_CRC": "6E857A245F6F31DA", "FMEL_UPD_D": "20210128110627" }, "geometry": { "type": "Point", "coordinates": [ 103.835147957844001, 1.29028192700494 ] } },
{ "type": "Feature", "properties": { "Name": "Grand Hyatt Singapore", "description": "", "HYPERLINK": "singapore.grand@hyatt.com", "POSTALCODE": "228211", "KEEPERNAME": "Willi Beat Martin", "TOTALROOMS": "677", "ADDRESS": "10 Scotts Road", "INC_CRC": "F5543044BAEC0506", "FMEL_UPD_D": "20210128110627" }, "geometry": { "type": "Point", "coordinates": [ 103.833283334569003, 1.3063453359855 ] } },
{ "type": "Feature", "properties": { "Name": "Grand Mercure Roxy Hotel", "description": "", "HYPERLINK": "H3610-FO16@accor.com", "POSTALCODE": "428769", "KEEPERNAME": "Ng Wai Peng", "TOTALROOMS": "576", "ADDRESS": "50 East Coast Road", "INC_CRC": "FEC8882D5B30CF49", "FMEL_UPD_D": "20210128110627" }, "geometry": { "type": "Point", "coordinates": [ 103.904051128936999, 1.3043259893264 ] } },
{ "type": "Feature", "properties": { "Name": "Grand Park City Hall", "description": "", "HYPERLINK": "info.gpch@parkhotelgroup.com", "POSTALCODE": "179809", "KEEPERNAME": "Jeane Lim Sook Tiang", "TOTALROOMS": "343", "ADDRESS": "10 Coleman Street", "INC_CRC": "ED8DF7F4128749AC", "FMEL_UPD_D": "20210128110627" }, "geometry": { "type": "Point", "coordinates": [ 103.850123925267994, 1.29262894189275 ] } },
{ "type": "Feature", "properties": { "Name": "Grand Park Orchard", "description": "", "HYPERLINK": "infor.gpor@parkhotelgroup.com", "POSTALCODE": "238857", "KEEPERNAME": "Lim Kang-Ling", "TOTALROOMS": "308", "ADDRESS": "270 Orchard Road", "INC_CRC": "AC132E5EFF9711B1", "FMEL_UPD_D": "20210128110627" }, "geometry": { "type": "Point", "coordinates": [ 103.836202012781996, 1.30310525131104 ] } },
{ "type": "Feature", "properties": { "Name": "GREENDILI BACKPACKERS HOSTEL", "description": "", "HYPERLINK": "GREENDILIHOSTEL@GMAIL.COM", "POSTALCODE": "218673", "KEEPERNAME": "SUN KANGQING", "TOTALROOMS": "9", "ADDRESS": "427 RACE COURSE ROAD GREENDILI BACKPACKERS HOSTEL", "INC_CRC": "76E9C8C26E89E1EE", "FMEL_UPD_D": "20210128110627" }, "geometry": { "type": "Point", "coordinates": [ 103.857555410336005, 1.3159109329182 ] } },
{ "type": "Feature", "properties": { "Name": "Harbour Ville Hotel", "description": "", "HYPERLINK": "harbourv@singnet.com.sg", "POSTALCODE": "99448", "KEEPERNAME": "Lim Shirley", "TOTALROOMS": "100", "ADDRESS": "512 Kampong Bahru Road", "INC_CRC": "EBDEEC996FFCE73B", "FMEL_UPD_D": "20210128110627" }, "geometry": { "type": "Point", "coordinates": [ 103.827744716094003, 1.27261402571663 ] } },
{ "type": "Feature", "properties": { "Name": "Harbour Ville Hotel Hamilton", "description": "", "HYPERLINK": "", "POSTALCODE": "209210", "KEEPERNAME": "SOH SHIL NIE", "TOTALROOMS": "43", "ADDRESS": "40 HAMILTON ROAD", "INC_CRC": "EC415EC11AE52BC8", "FMEL_UPD_D": "20210128110627" }, "geometry": { "type": "Point", "coordinates": [ 103.861509695837, 1.31156411968173 ] } },
{ "type": "Feature", "properties": { "Name": "7 Wonders Hostel", "description": "", "HYPERLINK": "", "POSTALCODE": "208930", "KEEPERNAME": "Shahjahan Bin Mohamed Sitthiq", "TOTALROOMS": "5", "ADDRESS": "257 Jalan Besar", "INC_CRC": "4BC4048148518C7C", "FMEL_UPD_D": "20210128110627" }, "geometry": { "type": "Point", "coordinates": [ 103.858155071753998, 1.31019236449532 ] } },
{ "type": "Feature", "properties": { "Name": "7 Wonders Hostel @ Upper Dickson", "description": "", "HYPERLINK": "hr@7wondershostel.com", "POSTALCODE": "207472", "KEEPERNAME": "SHAHJAHAN BIN MOHAMED SITTHIQ", "TOTALROOMS": "8", "ADDRESS": "12A UPPER DICKSON ROAD CLIFDEN HOSTEL", "INC_CRC": "59983D0C6DBD17D5", "FMEL_UPD_D": "20210128110627" }, "geometry": { "type": "Point", "coordinates": [ 103.852350568271007, 1.30635176142908 ] } },
{ "type": "Feature", "properties": { "Name": "99 HOSTEL", "description": "", "HYPERLINK": "", "POSTALCODE": "58695", "KEEPERNAME": "CHENG XIANGXIANG", "TOTALROOMS": "4", "ADDRESS": "65 SOUTH BRIDGE ROAD", "INC_CRC": "DA2635FF2BBEE9D9", "FMEL_UPD_D": "20210128110627" }, "geometry": { "type": "Point", "coordinates": [ 103.848260421218001, 1.28693411210368 ] } },
{ "type": "Feature", "properties": { "Name": "ABC HOSTEL", "description": "", "HYPERLINK": "booking@abchostel.com.sg", "POSTALCODE": "199201", "KEEPERNAME": "TEO WEN HAO", "TOTALROOMS": "23", "ADDRESS": "3  Jalan Kubor (1st Storey)", "INC_CRC": "CA625887E4BDE889", "FMEL_UPD_D": "20210128110627" }, "geometry": { "type": "Point", "coordinates": [ 103.859267550804006, 1.30366887875577 ] } },
{ "type": "Feature", "properties": { "Name": "ABC Premium Hostel", "description": "", "HYPERLINK": "enquiry@abcpremiumhostel.com.sg", "POSTALCODE": "218903", "KEEPERNAME": "TEO WEN HAO", "TOTALROOMS": "6", "ADDRESS": "91A Owen Road", "INC_CRC": "846FED1DB66F665A", "FMEL_UPD_D": "20210128110627" }, "geometry": { "type": "Point", "coordinates": [ 103.853106387894996, 1.31327443655391 ] } },
{ "type": "Feature", "properties": { "Name": "Adamson Lodge", "description": "", "HYPERLINK": "query_chris@yahoo.com.sg", "POSTALCODE": "208127", "KEEPERNAME": "Lee Choon Chuan", "TOTALROOMS": "7", "ADDRESS": "6 Perak Road", "INC_CRC": "FE502164CC10A45A", "FMEL_UPD_D": "20210128110627" }, "geometry": { "type": "Point", "coordinates": [ 103.852965178949006, 1.30448415943975 ] } },
{ "type": "Feature", "properties": { "Name": "Amara Sanctuary Resort, Sentosa", "description": "", "HYPERLINK": "sentosa@amarasanctuary.com", "POSTALCODE": "99394", "KEEPERNAME": "Joseph Thiang Thin Poh", "TOTALROOMS": "140", "ADDRESS": "1 Larkhill Road", "INC_CRC": "7E2F91BFBF93F966", "FMEL_UPD_D": "20210128110627" }, "geometry": { "type": "Point", "coordinates": [ 103.822016591014005, 1.25212800048918 ] } },
{ "type": "Feature", "properties": { "Name": "Amara Singapore", "description": "", "HYPERLINK": "singapore@amarahotels.com", "POSTALCODE": "88539", "KEEPERNAME": "Joseph Thiang Thin Poh", "TOTALROOMS": "380", "ADDRESS": "165 Tanjong Pagar Road", "INC_CRC": "B8E4090856EEF4CB", "FMEL_UPD_D": "20210128110627" }, "geometry": { "type": "Point", "coordinates": [ 103.843500117166997, 1.27493473787886 ] } },
{ "type": "Feature", "properties": { "Name": "Amber Hotel", "description": "", "HYPERLINK": "wuterence@gmail.com", "POSTALCODE": "439885", "KEEPERNAME": "Goh Chee Hwee", "TOTALROOMS": "21", "ADDRESS": "42 Amber Road", "INC_CRC": "409E53B77925D91D", "FMEL_UPD_D": "20210128110627" }, "geometry": { "type": "Point", "coordinates": [ 103.901244740584005, 1.30092010603163 ] } },
{ "type": "Feature", "properties": { "Name": "Amber Hotel Katong", "description": "", "HYPERLINK": "wuterence@gmail.com", "POSTALCODE": "439878", "KEEPERNAME": "Goh Chee Hwee", "TOTALROOMS": "25", "ADDRESS": "40 Amber Road", "INC_CRC": "6D2E46693138FD14", "FMEL_UPD_D": "20210128110627" }, "geometry": { "type": "Point", "coordinates": [ 103.901096194874, 1.3008154172378 ] } },
{ "type": "Feature", "properties": { "Name": "Amoy Hotel", "description": "", "HYPERLINK": "info.amoy@fareast.com.sg", "POSTALCODE": "48464", "KEEPERNAME": "Teo Kah Eng (Alvin)", "TOTALROOMS": "37", "ADDRESS": "76 Telok Ayer Street", "INC_CRC": "3144BDE57A0666BA", "FMEL_UPD_D": "20210128110627" }, "geometry": { "type": "Point", "coordinates": [ 103.84864539809, 1.28300038937659 ] } },
{ "type": "Feature", "properties": { "Name": "Amrise Hotel", "description": "", "HYPERLINK": "reservation@amrisehotel.com", "POSTALCODE": "387436", "KEEPERNAME": "LIM TIM BOCK", "TOTALROOMS": "58", "ADDRESS": "112 Sims Avenue , # 01-01", "INC_CRC": "BD6D5FF91F9D87FB", "FMEL_UPD_D": "20210128110627" }, "geometry": { "type": "Point", "coordinates": [ 103.877872197764006, 1.31392297209217 ] } },
{ "type": "Feature", "properties": { "Name": "Andaz Singapore", "description": "", "HYPERLINK": "singapore@andaz.com", "POSTALCODE": "189354", "KEEPERNAME": "Lu Fang-Yi @ Amy Lu", "TOTALROOMS": "342", "ADDRESS": "5 FRASER STREET", "INC_CRC": "60AA84F201706D90", "FMEL_UPD_D": "20210128110627" }, "geometry": { "type": "Point", "coordinates": [ 103.857859544647994, 1.29916295638181 ] } },
{ "type": "Feature", "properties": { "Name": "Ann Siang House", "description": "", "HYPERLINK": "", "POSTALCODE": "69708", "KEEPERNAME": "Manchharam Ashish", "TOTALROOMS": "20", "ADDRESS": "28 ANN SIANG ROAD", "INC_CRC": "73EE86A8291261E8", "FMEL_UPD_D": "20210128110627" }, "geometry": { "type": "Point", "coordinates": [ 103.845721510662003, 1.2807288857312 ] } },
{ "type": "Feature", "properties": { "Name": "AQUEEN Heritage Hotel - Little India", "description": "", "HYPERLINK": "", "POSTALCODE": "219962", "KEEPERNAME": "Chan Boon Tat", "TOTALROOMS": "70", "ADDRESS": "22 BELILIOS LANE AQUEEN HERITAGE HOTEL - LITTLE INDIA", "INC_CRC": "29AF37AA78351766", "FMEL_UPD_D": "20210128110627" }, "geometry": { "type": "Point", "coordinates": [ 103.851868266107005, 1.30736540957505 ] } },
{ "type": "Feature", "properties": { "Name": "AQUEEN Hotel - Kitchener", "description": "", "HYPERLINK": "", "POSTALCODE": "208906", "KEEPERNAME": "Chan Boon Tat", "TOTALROOMS": "74", "ADDRESS": "230 Jalan Besar", "INC_CRC": "CC35ED728A01C109", "FMEL_UPD_D": "20210128110627" }, "geometry": { "type": "Point", "coordinates": [ 103.858027585848006, 1.30929085528988 ] } },
{ "type": "Feature", "properties": { "Name": "Arcadia Hotel", "description": "", "HYPERLINK": "wyneo@arcadiahotel.com.sg", "POSTALCODE": "209201", "KEEPERNAME": "Neo Wan Yong", "TOTALROOMS": "36", "ADDRESS": "32 Hamilton Road", "INC_CRC": "1E36496D94BE0983", "FMEL_UPD_D": "20210128110627" }, "geometry": { "type": "Point", "coordinates": [ 103.861344016453003, 1.31144511621403 ] } },
{ "type": "Feature", "properties": { "Name": "Arianna Hotel", "description": "", "HYPERLINK": "accounts@arianna.com.sg", "POSTALCODE": "207662", "KEEPERNAME": "Ng Swee Yak", "TOTALROOMS": "51", "ADDRESS": "83 Syed Alwi Road", "INC_CRC": "7FEC20B2AE2C0DC7", "FMEL_UPD_D": "20210128110627" }, "geometry": { "type": "Point", "coordinates": [ 103.855916077404004, 1.30898195611065 ] } },
{ "type": "Feature", "properties": { "Name": "Ark Hostel", "description": "", "HYPERLINK": "singaporelodgingpteltd@gmail.com", "POSTALCODE": "389200", "KEEPERNAME": "Kelvin Tng Eng Khai", "TOTALROOMS": "31", "ADDRESS": "83B Geylang Road", "INC_CRC": "76C437DC0103BE05", "FMEL_UPD_D": "20210128110627" }, "geometry": { "type": "Point", "coordinates": [ 103.872957810112993, 1.31083993031984 ] } },
{ "type": "Feature", "properties": { "Name": "Arton Hotel", "description": "", "HYPERLINK": "", "POSTALCODE": "207576", "KEEPERNAME": "Ooi Teck Hin", "TOTALROOMS": "109", "ADDRESS": "176 Tyrwhitt Road", "INC_CRC": "CE24146FE1909105", "FMEL_UPD_D": "20210128110627" }, "geometry": { "type": "Point", "coordinates": [ 103.860855935207994, 1.31200012479956 ] } },
{ "type": "Feature", "properties": { "Name": "Ascott Orchard Singapore", "description": "", "HYPERLINK": "", "POSTALCODE": "229724", "KEEPERNAME": "Wong Mei Ling Judy", "TOTALROOMS": "220", "ADDRESS": "11 CAIRNHILL ROAD", "INC_CRC": "3FB23879C3C224C7", "FMEL_UPD_D": "20210128110627" }, "geometry": { "type": "Point", "coordinates": [ 103.837118390960995, 1.30398869691117 ] } },
{ "type": "Feature", "properties": { "Name": "Ascott Singapore Raffles Place", "description": "", "HYPERLINK": "enquiry@the-ascott.com", "POSTALCODE": "49247", "KEEPERNAME": "Judy Wong Mei Ling", "TOTALROOMS": "146", "ADDRESS": "2 Finlayson Green", "INC_CRC": "EA1EEC707A782A8A", "FMEL_UPD_D": "20210128110627" }, "geometry": { "type": "Point", "coordinates": [ 103.851544401021002, 1.28208454707961 ] } },
{ "type": "Feature", "properties": { "Name": "Beary Best! Hostel Kampong Glam", "description": "", "HYPERLINK": "BearyKG@abearygoodhostel.com", "POSTALCODE": "199761", "KEEPERNAME": "MARECHAL PIERRE JEAN M", "TOTALROOMS": "4", "ADDRESS": "64 ARAB STREET, # 00-00", "INC_CRC": "6170F48FB938CB60", "FMEL_UPD_D": "20210128110627" }, "geometry": { "type": "Point", "coordinates": [ 103.859394682355003, 1.30120414903648 ] } },
{ "type": "Feature", "properties": { "Name": "Beary Nice Hostel", "description": "", "HYPERLINK": "", "POSTALCODE": "58330", "KEEPERNAME": "Teo Peihan Janine", "TOTALROOMS": "4", "ADDRESS": "14 UPPER CROSS STREET, # 1- BACKPACKER'S INN CHINATOWN 3", "INC_CRC": "F6A071BF69D4A273", "FMEL_UPD_D": "20210128110627" }, "geometry": { "type": "Point", "coordinates": [ 103.845477809189006, 1.28379359689987 ] } },
{ "type": "Feature", "properties": { "Name": "BEAT. Sports Hostel", "description": "", "HYPERLINK": "sports@beathostel.co", "POSTALCODE": "208953", "KEEPERNAME": "JEREMY TEO", "TOTALROOMS": "13", "ADDRESS": "290A Jalan Besar", "INC_CRC": "FEA8E458DDD06100", "FMEL_UPD_D": "20210128110627" }, "geometry": { "type": "Point", "coordinates": [ 103.858904448770005, 1.31064624214852 ] } },
{ "type": "Feature", "properties": { "Name": "Betel Box Backpackers Hostel", "description": "", "HYPERLINK": "info@betelbox.com", "POSTALCODE": "427471", "KEEPERNAME": "Tan Say Kiong", "TOTALROOMS": "6", "ADDRESS": "200 Joo Chiat Road", "INC_CRC": "C35238BC7123EC69", "FMEL_UPD_D": "20210128110627" }, "geometry": { "type": "Point", "coordinates": [ 103.900168104154005, 1.31220268168059 ] } },
{ "type": "Feature", "properties": { "Name": "Blanc Inn", "description": "", "HYPERLINK": "blancinn@gmail.com", "POSTALCODE": "207564", "KEEPERNAME": "Iek Tong Wah", "TOTALROOMS": "4", "ADDRESS": "151 Tyrwhitt Road", "INC_CRC": "0A0416C2BAE46AC6", "FMEL_UPD_D": "20210128110627" }, "geometry": { "type": "Point", "coordinates": [ 103.860152247876002, 1.3118099599849 ] } },
{ "type": "Feature", "properties": { "Name": "Bliss Hotel Singapore", "description": "", "HYPERLINK": "reservation@blisshotel.com.sg", "POSTALCODE": "58353", "KEEPERNAME": "Kee Khek Thai", "TOTALROOMS": "42", "ADDRESS": "62 Upper Cross Street", "INC_CRC": "2B14BC13300BD208", "FMEL_UPD_D": "20210128110627" }, "geometry": { "type": "Point", "coordinates": [ 103.844304195693994, 1.28445774430707 ] } },
{ "type": "Feature", "properties": { "Name": "Blue Jazz Hostel", "description": "", "HYPERLINK": "", "POSTALCODE": "208916", "KEEPERNAME": "Wang CuiRong", "TOTALROOMS": "5", "ADDRESS": "243 JALAN BESAR", "INC_CRC": "5D64B51A34C4AA8B", "FMEL_UPD_D": "20210128110627" }, "geometry": { "type": "Point", "coordinates": [ 103.857905531369994, 1.30982597177326 ] } },
{ "type": "Feature", "properties": { "Name": "Breeze Inn", "description": "", "HYPERLINK": "breezeinn8@gmail.com", "POSTALCODE": "199135", "KEEPERNAME": "LIN YI YUN", "TOTALROOMS": "16", "ADDRESS": "3 JALAN PINANG ADAMSON INN", "INC_CRC": "0B1AF9552E85769A", "FMEL_UPD_D": "20210128110627" }, "geometry": { "type": "Point", "coordinates": [ 103.858436453127993, 1.30258711150837 ] } },
{ "type": "Feature", "properties": { "Name": "Bright Star Hotel", "description": "", "HYPERLINK": "brightstarhotel@yahoo.com.sg", "POSTALCODE": "388575", "KEEPERNAME": "Pauline Seah Swee Lian", "TOTALROOMS": "86", "ADDRESS": "20 Lorong 17 Geylang", "INC_CRC": "CB853F541BB75F19", "FMEL_UPD_D": "20210128110627" }, "geometry": { "type": "Point", "coordinates": [ 103.878864871245, 1.31351593312261 ] } },
{ "type": "Feature", "properties": { "Name": "Broadway Hotel", "description": "", "HYPERLINK": "broadwayhotelsingapore@yahoo.com", "POSTALCODE": "218067", "KEEPERNAME": "Sim Seng Quee", "TOTALROOMS": "65", "ADDRESS": "195 Serangoon Road", "INC_CRC": "6FA883FF81602956", "FMEL_UPD_D": "20210128110627" }, "geometry": { "type": "Point", "coordinates": [ 103.853224451952997, 1.30917900212984 ] } },
{ "type": "Feature", "properties": { "Name": "BudgetOne Hotel", "description": "", "HYPERLINK": "", "POSTALCODE": "398793", "KEEPERNAME": "Lim Kee Huat", "TOTALROOMS": "49", "ADDRESS": "10 LORONG 18 GEYLANG BUDGETONE HOTEL", "INC_CRC": "A49D496D62911FD2", "FMEL_UPD_D": "20210128110627" }, "geometry": { "type": "Point", "coordinates": [ 103.880423593147995, 1.31221720783339 ] } },
{ "type": "Feature", "properties": { "Name": "BUTTERNUTTREE HOTEL", "description": "", "HYPERLINK": "", "POSTALCODE": "88392", "KEEPERNAME": "WIWIN CHRISTANTI GHOBIND", "TOTALROOMS": "55", "ADDRESS": "22 TECK LIM ROAD PARK 22 HOTEL CHINATOWN", "INC_CRC": "41FED2B8CE69E2DF", "FMEL_UPD_D": "20210128110627" }, "geometry": { "type": "Point", "coordinates": [ 103.841824512271003, 1.28063133791161 ] } },
{ "type": "Feature", "properties": { "Name": "Cameron Hotel", "description": "", "HYPERLINK": "info@cameronhotel.com.sg", "POSTALCODE": "486917", "KEEPERNAME": "Nicholas Ong Ann Wei", "TOTALROOMS": "19", "ADDRESS": "393F Upper Changi Road", "INC_CRC": "95B50FAF44FE2B29", "FMEL_UPD_D": "20210128110627" }, "geometry": { "type": "Point", "coordinates": [ 103.954974045382997, 1.33674234821614 ] } },
{ "type": "Feature", "properties": { "Name": "Campbell Inn", "description": "", "HYPERLINK": "", "POSTALCODE": "209922", "KEEPERNAME": "Wang Cuirong", "TOTALROOMS": "10", "ADDRESS": "50 CAMPBELL LANE CHECKERS BACKPACKERS", "INC_CRC": "AEC0344008F84BBA", "FMEL_UPD_D": "20210128110627" }, "geometry": { "type": "Point", "coordinates": [ 103.852641538954003, 1.30499470478209 ] } },
{ "type": "Feature", "properties": { "Name": "Capella Hotel, Singapore", "description": "", "HYPERLINK": "gr.singapore@capellahotels.com", "POSTALCODE": "98297", "KEEPERNAME": "Fernando Gibaja Garcia-Zarco", "TOTALROOMS": "193", "ADDRESS": "1 The Knolls", "INC_CRC": "9CA2E74FFAE5A355", "FMEL_UPD_D": "20210128110627" }, "geometry": { "type": "Point", "coordinates": [ 103.824378229098997, 1.24948297406912 ] } },
{ "type": "Feature", "properties": { "Name": "Capri By Fraser Changi City, Singapore", "description": "", "HYPERLINK": "resvn.changicity@capribyfraser.com", "POSTALCODE": "486037", "KEEPERNAME": "Vernon Lee Koon Yong", "TOTALROOMS": "313", "ADDRESS": "3 Changi Business Park Central 1  Changi City", "INC_CRC": "8E9AFDE80718099C", "FMEL_UPD_D": "20210128110627" }, "geometry": { "type": "Point", "coordinates": [ 103.963583777969006, 1.3342655648281 ] } },
{ "type": "Feature", "properties": { "Name": "CAPSULE POD BOUTIQUE HOSTEL", "description": "", "HYPERLINK": "info@capsulepod.sg", "POSTALCODE": "58341", "KEEPERNAME": "XIE ZHIYANG KEITH", "TOTALROOMS": "15", "ADDRESS": "38 UPPER CROSS STREET, # 02-01", "INC_CRC": "77402B43069DB240", "FMEL_UPD_D": "20210128110627" }, "geometry": { "type": "Point", "coordinates": [ 103.844862902624001, 1.28415452275202 ] } },
{ "type": "Feature", "properties": { "Name": "CapsulePod@Aljunied", "description": "", "HYPERLINK": "", "POSTALCODE": "388194", "KEEPERNAME": "YAN TONGJI", "TOTALROOMS": "8", "ADDRESS": "76A LORONG 27 GEYLANG", "INC_CRC": "5EA68B54FDAD1C8E", "FMEL_UPD_D": "20210128110627" }, "geometry": { "type": "Point", "coordinates": [ 103.883955325222004, 1.31594220611958 ] } },
{ "type": "Feature", "properties": { "Name": "Carlton City Hotel Singapore", "description": "", "HYPERLINK": "douglas.glen@carltoncity.sg", "POSTALCODE": "78862", "KEEPERNAME": "Douglas Maxwell Glen", "TOTALROOMS": "386", "ADDRESS": "1 Gopeng Street", "INC_CRC": "552A51C59C1F53D4", "FMEL_UPD_D": "20210128110627" }, "geometry": { "type": "Point", "coordinates": [ 103.843698500089999, 1.27595845561159 ] } },
{ "type": "Feature", "properties": { "Name": "Carlton Hotel", "description": "", "HYPERLINK": "mail@carltonhotel.sg", "POSTALCODE": "189558", "KEEPERNAME": "Darren Leroy Ware", "TOTALROOMS": "940", "ADDRESS": "76 Bras Basah Road", "INC_CRC": "2D7EFA59EE55019B", "FMEL_UPD_D": "20210128110627" }, "geometry": { "type": "Point", "coordinates": [ 103.852518906013003, 1.29592644324195 ] } },
{ "type": "Feature", "properties": { "Name": "Champion Hotel", "description": "", "HYPERLINK": "janet@championhotel.com.sg", "POSTALCODE": "427726", "KEEPERNAME": "Lim Liang Jason", "TOTALROOMS": "81", "ADDRESS": "60 Joo Chiat Road", "INC_CRC": "9FE5576D9A6777AE", "FMEL_UPD_D": "20210128110627" }, "geometry": { "type": "Point", "coordinates": [ 103.898375899105005, 1.31473398017971 ] } },
{ "type": "Feature", "properties": { "Name": "CHAMPION HOTEL CITY", "description": "", "HYPERLINK": "janet@championhotel.com.sg", "POSTALCODE": "59293", "KEEPERNAME": "Lim Liang Jason", "TOTALROOMS": "33", "ADDRESS": "37 NORTH CANAL ROAD", "INC_CRC": "97C896220EDA0215", "FMEL_UPD_D": "20210128110627" }, "geometry": { "type": "Point", "coordinates": [ 103.847101641717998, 1.2870553523913 ] } },
{ "type": "Feature", "properties": { "Name": "Changi Cove", "description": "", "HYPERLINK": "enquiry@changicove.com", "POSTALCODE": "509866", "KEEPERNAME": "Chew Tee Yen", "TOTALROOMS": "141", "ADDRESS": "351 Cranwell Road", "INC_CRC": "0716878A862C1E5E", "FMEL_UPD_D": "20210128110627" }, "geometry": { "type": "Point", "coordinates": [ 103.975654971311997, 1.38857514608333 ] } },
{ "type": "Feature", "properties": { "Name": "Hotel Nuve", "description": "", "HYPERLINK": "contact@hotelnuve.com", "POSTALCODE": "199143", "KEEPERNAME": "Soh Shil Nie", "TOTALROOMS": "43", "ADDRESS": "11 Jalan Pinang", "INC_CRC": "B7AB95BFB22C3559", "FMEL_UPD_D": "20210128110627" }, "geometry": { "type": "Point", "coordinates": [ 103.858275297850994, 1.30275140814887 ] } },
{ "type": "Feature", "properties": { "Name": "CherryLoft Express", "description": "", "HYPERLINK": "acct@cherryloft.com", "POSTALCODE": "207398", "KEEPERNAME": "ONG PUAY GUAN @ STEVEN ONG", "TOTALROOMS": "34", "ADDRESS": "41 UPPER WELD ROAD", "INC_CRC": "FE4E1717242A579A", "FMEL_UPD_D": "20210128110627" }, "geometry": { "type": "Point", "coordinates": [ 103.853677597238004, 1.30619457600235 ] } },
{ "type": "Feature", "properties": { "Name": "Cherryloft Resorts", "description": "", "HYPERLINK": "resorts@cherryloft.com", "POSTALCODE": "509404", "KEEPERNAME": "ONG RYAN ZHENGYONG", "TOTALROOMS": "186", "ADDRESS": "159 Jalan Loyang Besar", "INC_CRC": "F90A1F0BFEB16707", "FMEL_UPD_D": "20210128110627" }, "geometry": { "type": "Point", "coordinates": [ 103.958317578174999, 1.37916855177722 ] } },
{ "type": "Feature", "properties": { "Name": "Circular House", "description": "", "HYPERLINK": "", "POSTALCODE": "49362", "KEEPERNAME": "AMIT BHAGAT", "TOTALROOMS": "12", "ADDRESS": "6 CIRCULAR ROAD", "INC_CRC": "0234F0BD23901BE2", "FMEL_UPD_D": "20210128110627" }, "geometry": { "type": "Point", "coordinates": [ 103.848964671912995, 1.28795051990571 ] } },
{ "type": "Feature", "properties": { "Name": "Citadines Rochor Singapore", "description": "", "HYPERLINK": "frontoffice.crsg@the-ascott.com", "POSTALCODE": "218227", "KEEPERNAME": "WONG MEI LING JUDY", "TOTALROOMS": "320", "ADDRESS": "2 SERANGOON ROAD, # 03-01 TEKKA PLACE", "INC_CRC": "15C288F990452AB4", "FMEL_UPD_D": "20210128110627" }, "geometry": { "type": "Point", "coordinates": [ 103.851438825177993, 1.30512221745202 ] } },
{ "type": "Feature", "properties": { "Name": "City Backpackers", "description": "", "HYPERLINK": "citybackpackers@hotmail.com", "POSTALCODE": "59661", "KEEPERNAME": "Tan Kee Chong Derrick", "TOTALROOMS": "11", "ADDRESS": "18 Hongkong Street", "INC_CRC": "008BD07599CBF9D1", "FMEL_UPD_D": "20210128110627" }, "geometry": { "type": "Point", "coordinates": [ 103.847281913664006, 1.28780398825889 ] } },
{ "type": "Feature", "properties": { "Name": "Hard Rock Hotel", "description": "", "HYPERLINK": "enquiries@rwsentosa.com", "POSTALCODE": "98139", "KEEPERNAME": "Johansson Jan Fredrik", "TOTALROOMS": "364", "ADDRESS": "28 Sentosa Gateway", "INC_CRC": "4A909258A0F6B534", "FMEL_UPD_D": "20210128110627" }, "geometry": { "type": "Point", "coordinates": [ 103.818913907351003, 1.25746583281896 ] } },
{ "type": "Feature", "properties": { "Name": "Hawaii Hostel", "description": "", "HYPERLINK": "", "POSTALCODE": "189641", "KEEPERNAME": "Ng Kun Heng", "TOTALROOMS": "83", "ADDRESS": "169A Bencoolen Street", "INC_CRC": "CF2AA3D06F0E5409", "FMEL_UPD_D": "20210128110627" }, "geometry": { "type": "Point", "coordinates": [ 103.852244669339001, 1.30156897150731 ] } },
{ "type": "Feature", "properties": { "Name": "Heritage Collection on Chinatown", "description": "", "HYPERLINK": "", "POSTALCODE": "58776", "KEEPERNAME": "Yap Hui Wen", "TOTALROOMS": "27", "ADDRESS": "227 SOUTH BRIDGE ROAD, # 01-03", "INC_CRC": "FDAC3EDCBAD2FE8F", "FMEL_UPD_D": "20210128110627" }, "geometry": { "type": "Point", "coordinates": [ 103.845722570877996, 1.28277324511435 ] } },
{ "type": "Feature", "properties": { "Name": "Heritage Collection on Seah", "description": "", "HYPERLINK": "", "POSTALCODE": "188395", "KEEPERNAME": "Yap Hui Wen", "TOTALROOMS": "18", "ADDRESS": "39 SEAH STREET", "INC_CRC": "12DFF9CFA020793F", "FMEL_UPD_D": "20210128110627" }, "geometry": { "type": "Point", "coordinates": [ 103.855088788757001, 1.29589846119217 ] } },
{ "type": "Feature", "properties": { "Name": "HERITAGE INN @ ARAB STREET", "description": "", "HYPERLINK": "", "POSTALCODE": "199745", "KEEPERNAME": "Low Sue Lim Desmond", "TOTALROOMS": "6", "ADDRESS": "48 ARAB STREET KAMPONG @ ARAB", "INC_CRC": "3639B3A3FB6607CC", "FMEL_UPD_D": "20210128110627" }, "geometry": { "type": "Point", "coordinates": [ 103.859681427203, 1.30078636753127 ] } },
{ "type": "Feature", "properties": { "Name": "Hilton Garden Inn Singapore Serangoon", "description": "", "HYPERLINK": "singi.hotel@hilton.com", "POSTALCODE": "219924", "KEEPERNAME": "Eva Moral", "TOTALROOMS": "328", "ADDRESS": "3 Belilios Road", "INC_CRC": "52BC35B40F7286B1", "FMEL_UPD_D": "20210128110627" }, "geometry": { "type": "Point", "coordinates": [ 103.851928685296002, 1.30833559981707 ] } },
{ "type": "Feature", "properties": { "Name": "Hilton Singapore", "description": "", "HYPERLINK": "sinhi@hilton.com", "POSTALCODE": "238883", "KEEPERNAME": "Peter Webster", "TOTALROOMS": "423", "ADDRESS": "581 Orchard Road", "INC_CRC": "7FA3C24CCB49505F", "FMEL_UPD_D": "20210128110627" }, "geometry": { "type": "Point", "coordinates": [ 103.829314887851993, 1.30587902148372 ] } },
{ "type": "Feature", "properties": { "Name": "Holiday Inn Express Singapore Clarke Quay", "description": "", "HYPERLINK": "info.sincq@ihg.com", "POSTALCODE": "59573", "KEEPERNAME": "Alexandra Pauline Kloprogge", "TOTALROOMS": "442", "ADDRESS": "2 Magazine Road", "INC_CRC": "F0535AE38FFEDB05", "FMEL_UPD_D": "20210128110627" }, "geometry": { "type": "Point", "coordinates": [ 103.841983925747002, 1.28924402665703 ] } },
{ "type": "Feature", "properties": { "Name": "Holiday Inn Express Singapore Katong", "description": "", "HYPERLINK": "", "POSTALCODE": "423371", "KEEPERNAME": "Adel Aramouni", "TOTALROOMS": "451", "ADDRESS": "88 EAST COAST ROAD, # 07-05 KATONG SQUARE", "INC_CRC": "5849E01E116E3183", "FMEL_UPD_D": "20210128110627" }, "geometry": { "type": "Point", "coordinates": [ 103.904574228643995, 1.30485336795088 ] } },
{ "type": "Feature", "properties": { "Name": "Holiday Inn Express Singapore Orchard Road", "description": "", "HYPERLINK": "info.sinex@ihg.com", "POSTALCODE": "229921", "KEEPERNAME": "Najeeb Kurungottu", "TOTALROOMS": "221", "ADDRESS": "20 Bideford Road", "INC_CRC": "1E17B0CDF1E7CDA8", "FMEL_UPD_D": "20210128110627" }, "geometry": { "type": "Point", "coordinates": [ 103.836680368342996, 1.30322795583465 ] } },
{ "type": "Feature", "properties": { "Name": "K HOTEL 14", "description": "", "HYPERLINK": "", "POSTALCODE": "399047", "KEEPERNAME": "CAI WENCHAO", "TOTALROOMS": "45", "ADDRESS": "14 LORONG 10 GEYLANG", "INC_CRC": "3C17D726A70BECCE", "FMEL_UPD_D": "20210128110627" }, "geometry": { "type": "Point", "coordinates": [ 103.877541287420001, 1.31123084152033 ] } },
{ "type": "Feature", "properties": { "Name": "Holiday Inn Singapore Atrium", "description": "", "HYPERLINK": "hiatrium@ichotelsgroup.com", "POSTALCODE": "169075", "KEEPERNAME": "Tuncay Bockin", "TOTALROOMS": "518", "ADDRESS": "317 Outram Road", "INC_CRC": "11EF65BD203685B9", "FMEL_UPD_D": "20210128110627" }, "geometry": { "type": "Point", "coordinates": [ 103.834068286993002, 1.28907019166027 ] } },
{ "type": "Feature", "properties": { "Name": "Holiday Inn Singapore Orchard City Centre", "description": "", "HYPERLINK": "info.hisinorchard@ihg.com", "POSTALCODE": "229616", "KEEPERNAME": "Gobind Naroomal Gary Harilela @Gary Harilela", "TOTALROOMS": "324", "ADDRESS": "11 Cavenagh Road", "INC_CRC": "789DE80F5E0211C0", "FMEL_UPD_D": "20210128110627" }, "geometry": { "type": "Point", "coordinates": [ 103.841101584501004, 1.30227912538394 ] } },
{ "type": "Feature", "properties": { "Name": "Home Suite View Hotel", "description": "", "HYPERLINK": "homesuite12@gmail.com", "POSTALCODE": "398993", "KEEPERNAME": "SWEE WEIDI", "TOTALROOMS": "175", "ADDRESS": "12 Lorong 12 Geylang", "INC_CRC": "01012B339B2217D5", "FMEL_UPD_D": "20210128110627" }, "geometry": { "type": "Point", "coordinates": [ 103.878121318913998, 1.31140043113114 ] } },
{ "type": "Feature", "properties": { "Name": "Hoover Hotel", "description": "", "HYPERLINK": "", "POSTALCODE": "329706", "KEEPERNAME": "Lim Choon Hua", "TOTALROOMS": "42", "ADDRESS": "246 Balestier Road , # 02-01", "INC_CRC": "EFBE8B5CA40442B0", "FMEL_UPD_D": "20210128110627" }, "geometry": { "type": "Point", "coordinates": [ 103.853069621771994, 1.32170313863895 ] } },
{ "type": "Feature", "properties": { "Name": "Hotel 165", "description": "", "HYPERLINK": "jackson@hotel165.sg", "POSTALCODE": "208532", "KEEPERNAME": "Siah Wei Bin", "TOTALROOMS": "68", "ADDRESS": "165 Kitchener Road", "INC_CRC": "9B96822662A98D40", "FMEL_UPD_D": "20210128110627" }, "geometry": { "type": "Point", "coordinates": [ 103.856274002503, 1.31047892595777 ] } },
{ "type": "Feature", "properties": { "Name": "Hotel 1887", "description": "", "HYPERLINK": "", "POSTALCODE": "58476", "KEEPERNAME": "Alan Tang", "TOTALROOMS": "80", "ADDRESS": "25 TRENGGANU STREET OPERA HOUSE HOTEL", "INC_CRC": "640B893DF70AFE59", "FMEL_UPD_D": "20210128110627" }, "geometry": { "type": "Point", "coordinates": [ 103.844175157457002, 1.28256763758547 ] } },
{ "type": "Feature", "properties": { "Name": "Hotel 1888", "description": "", "HYPERLINK": "justin.wong@hotel1888.com.sg", "POSTALCODE": "58479", "KEEPERNAME": "Adrian Siow Shen Ngin", "TOTALROOMS": "40", "ADDRESS": "20 TRENGGANU STREET, # 01-03 JINSHAN HOTEL", "INC_CRC": "0D678930AD97FD68", "FMEL_UPD_D": "20210128110627" }, "geometry": { "type": "Point", "coordinates": [ 103.843899635184997, 1.28285932265539 ] } },
{ "type": "Feature", "properties": { "Name": "RedDoorz @ Geylang", "description": "", "HYPERLINK": "", "POSTALCODE": "397662", "KEEPERNAME": "Amit Saberwal", "TOTALROOMS": "33", "ADDRESS": "61 WESTERHOUT ROAD", "INC_CRC": "9DED7DB90451ECFB", "FMEL_UPD_D": "20210128110627" }, "geometry": { "type": "Point", "coordinates": [ 103.881036636410997, 1.31122558409044 ] } },
{ "type": "Feature", "properties": { "Name": "Hotel 81 - Bugis", "description": "", "HYPERLINK": "hotel81@hotel81.com.sg", "POSTALCODE": "188995", "KEEPERNAME": "Chu Poh Yong", "TOTALROOMS": "88", "ADDRESS": "31 Middle Road", "INC_CRC": "15B1260EA042F00D", "FMEL_UPD_D": "20210128110627" }, "geometry": { "type": "Point", "coordinates": [ 103.855618625296998, 1.29687853383032 ] } },
{ "type": "Feature", "properties": { "Name": "Hotel 81 - Changi", "description": "", "HYPERLINK": "hotel81@hotel81.com.sg", "POSTALCODE": "419871", "KEEPERNAME": "Chu Poh Yong", "TOTALROOMS": "80", "ADDRESS": "428 Changi Road , # 01-01", "INC_CRC": "26435B9826BFF5F1", "FMEL_UPD_D": "20210128110627" }, "geometry": { "type": "Point", "coordinates": [ 103.911729077231001, 1.31869115633081 ] } },
{ "type": "Feature", "properties": { "Name": "Hotel 81 - Cherry", "description": "", "HYPERLINK": "hotel81@hotel81.com.sg", "POSTALCODE": "399014", "KEEPERNAME": "Chu Poh Yong", "TOTALROOMS": "53", "ADDRESS": "3 Lorong 12 Geylang", "INC_CRC": "7B3DF51643724BE4", "FMEL_UPD_D": "20210128110627" }, "geometry": { "type": "Point", "coordinates": [ 103.878417449832995, 1.31199127691196 ] } },
{ "type": "Feature", "properties": { "Name": "Hotel 81 - Chinatown", "description": "", "HYPERLINK": "hotel81@hotel81.com.sg", "POSTALCODE": "59418", "KEEPERNAME": "Chu Poh Yong", "TOTALROOMS": "95", "ADDRESS": "181 New Bridge Road", "INC_CRC": "6BB3C9FBF88A4898", "FMEL_UPD_D": "20210128110627" }, "geometry": { "type": "Point", "coordinates": [ 103.844098495278999, 1.28456367163908 ] } },
{ "type": "Feature", "properties": { "Name": "Hotel 81 - Cosy", "description": "", "HYPERLINK": "hotel81@hotel81.com.sg", "POSTALCODE": "89263", "KEEPERNAME": "Chu Poh Yong", "TOTALROOMS": "39", "ADDRESS": "8 Jiak Chuan Road", "INC_CRC": "F844FDFCD3FCFA99", "FMEL_UPD_D": "20210128110627" }, "geometry": { "type": "Point", "coordinates": [ 103.841859436164, 1.27966689951546 ] } },
{ "type": "Feature", "properties": { "Name": "Hotel 81 - Dickson", "description": "", "HYPERLINK": "hotel81@hotel81.com.sg", "POSTALCODE": "209530", "KEEPERNAME": "Chu Poh Yong", "TOTALROOMS": "196", "ADDRESS": "3 Dickson Road", "INC_CRC": "7991DBAA1EF8329B", "FMEL_UPD_D": "20210128110627" }, "geometry": { "type": "Point", "coordinates": [ 103.854269341863997, 1.30490446592441 ] } },
{ "type": "Feature", "properties": { "Name": "Hotel 81 - Elegance", "description": "", "HYPERLINK": "hotel81@hotel81.com.sg", "POSTALCODE": "209276", "KEEPERNAME": "Chu Poh Yong", "TOTALROOMS": "120", "ADDRESS": "30 Foch Road , # 01-01", "INC_CRC": "ED21428AA77FF425", "FMEL_UPD_D": "20210128110627" }, "geometry": { "type": "Point", "coordinates": [ 103.860271946102998, 1.31237964690163 ] } },
{ "type": "Feature", "properties": { "Name": "Hotel 81 - Fuji", "description": "", "HYPERLINK": "hotel81@hotel81.com.sg", "POSTALCODE": "329720", "KEEPERNAME": "Chu Poh Yong", "TOTALROOMS": "78", "ADDRESS": "269 Balestier Road", "INC_CRC": "787F346C2426ABE0", "FMEL_UPD_D": "20210128110627" }, "geometry": { "type": "Point", "coordinates": [ 103.852599854946007, 1.32218490550845 ] } },
{ "type": "Feature", "properties": { "Name": "The Quay Hotel West Coast", "description": "", "HYPERLINK": "", "POSTALCODE": "118769", "KEEPERNAME": "Heng Chern Chieh Germaine", "TOTALROOMS": "42", "ADDRESS": "428 PASIR PANJANG ROAD SANTA GRAND HOTEL WEST COAST", "INC_CRC": "92F45D6A0A4C34F7", "FMEL_UPD_D": "20210128110627" }, "geometry": { "type": "Point", "coordinates": [ 103.768589721054994, 1.29233444235646 ] } },
{ "type": "Feature", "properties": { "Name": "The Quincy Hotel", "description": "", "HYPERLINK": "info.tqh@fareast.com.sg", "POSTALCODE": "228517", "KEEPERNAME": "Kurukulasuriya Shakila Mehani Fernando", "TOTALROOMS": "108", "ADDRESS": "22 Mount Elizabeth", "INC_CRC": "0DDCF09C9E89EB9F", "FMEL_UPD_D": "20210128110627" }, "geometry": { "type": "Point", "coordinates": [ 103.835748313427999, 1.30775153247414 ] } },
{ "type": "Feature", "properties": { "Name": "The Regent Singapore", "description": "", "HYPERLINK": "reservations@regentsingapore.com.sg", "POSTALCODE": "249715", "KEEPERNAME": "Oscar Joan Giorgius Postma", "TOTALROOMS": "440", "ADDRESS": "1 Cuscaden Road", "INC_CRC": "0483F038CB574301", "FMEL_UPD_D": "20210128110627" }, "geometry": { "type": "Point", "coordinates": [ 103.824897364807001, 1.30467322365634 ] } },
{ "type": "Feature", "properties": { "Name": "The Ritz-Carlton, Millenia Singapore", "description": "", "HYPERLINK": "sinrz.leads@ritzcarlton.com", "POSTALCODE": "39799", "KEEPERNAME": "Peter William Mainguy", "TOTALROOMS": "608", "ADDRESS": "7 Raffles Avenue", "INC_CRC": "5AC82CBBCC45350F", "FMEL_UPD_D": "20210128110627" }, "geometry": { "type": "Point", "coordinates": [ 103.860047265047996, 1.29071830259005 ] } },
{ "type": "Feature", "properties": { "Name": "The Scarlet Hotel", "description": "", "HYPERLINK": "reservations@thescarlethotels.com", "POSTALCODE": "69333", "KEEPERNAME": "Anasri Bin T Onn", "TOTALROOMS": "80", "ADDRESS": "33 Erskine Road", "INC_CRC": "2655350159F92B0A", "FMEL_UPD_D": "20210128110627" }, "geometry": { "type": "Point", "coordinates": [ 103.845399528927999, 1.28082633621452 ] } },
{ "type": "Feature", "properties": { "Name": "The Seacare Hotel", "description": "", "HYPERLINK": "reservations@theseacarehotel.com.sg", "POSTALCODE": "169875", "KEEPERNAME": "Choo Sin How", "TOTALROOMS": "103", "ADDRESS": "52 Chin Swee Road", "INC_CRC": "52CE0FD2072988CD", "FMEL_UPD_D": "20210128110627" }, "geometry": { "type": "Point", "coordinates": [ 103.839843127647001, 1.28771626958407 ] } },
{ "type": "Feature", "properties": { "Name": "The Southbridge Hotel", "description": "", "HYPERLINK": "admin@southbridge.com", "POSTALCODE": "58759", "KEEPERNAME": "Leong Mun Choy, Bernard", "TOTALROOMS": "47", "ADDRESS": "210 South Bridge Road", "INC_CRC": "BBB01783A55F18E5", "FMEL_UPD_D": "20210128110627" }, "geometry": { "type": "Point", "coordinates": [ 103.845656808105005, 1.28341894026954 ] } },
{ "type": "Feature", "properties": { "Name": "The Sultan", "description": "", "HYPERLINK": "info@thesultan.com.sg", "POSTALCODE": "199002", "KEEPERNAME": "Ong Shu Xian Charmaine", "TOTALROOMS": "60", "ADDRESS": "101 Jalan Sultan", "INC_CRC": "BFB7ECAF785EECF4", "FMEL_UPD_D": "20210128110627" }, "geometry": { "type": "Point", "coordinates": [ 103.860975921584995, 1.30316598668086 ] } },
{ "type": "Feature", "properties": { "Name": "The Warehouse Hotel", "description": "", "HYPERLINK": "", "POSTALCODE": "169628", "KEEPERNAME": "Tarun Kalra", "TOTALROOMS": "37", "ADDRESS": "320 HAVELOCK ROAD", "INC_CRC": "53F718E1D63788B2", "FMEL_UPD_D": "20210128110627" }, "geometry": { "type": "Point", "coordinates": [ 103.837472221715998, 1.28920183768185 ] } },
{ "type": "Feature", "properties": { "Name": "The Westin Singapore", "description": "", "HYPERLINK": "westin.singapore@westin.com", "POSTALCODE": "18961", "KEEPERNAME": "Kuljit Singh Sarjit Singh", "TOTALROOMS": "305", "ADDRESS": "12 Marina View   Asia Square Tower 2", "INC_CRC": "9970EFDF76A09B0E", "FMEL_UPD_D": "20210128110627" }, "geometry": { "type": "Point", "coordinates": [ 103.850795186495006, 1.27830729144643 ] } },
{ "type": "Feature", "properties": { "Name": "Traveller@sg", "description": "", "HYPERLINK": "", "POSTALCODE": "208559", "KEEPERNAME": "Yan Tongji", "TOTALROOMS": "7", "ADDRESS": "111H King George's Avenue", "INC_CRC": "F0F5D2803F532FD8", "FMEL_UPD_D": "20210128110627" }, "geometry": { "type": "Point", "coordinates": [ 103.861714993221, 1.31033177948249 ] } },
{ "type": "Feature", "properties": { "Name": "Travelodge Harbourfront Singapore", "description": "", "HYPERLINK": "", "POSTALCODE": "98828", "KEEPERNAME": "Wong Siew Khee", "TOTALROOMS": "334", "ADDRESS": "50 TELOK BLANGAH ROAD BAY HOTEL SINGAPORE", "INC_CRC": "FF47311E1E8E7DB0", "FMEL_UPD_D": "20210128110627" }, "geometry": { "type": "Point", "coordinates": [ 103.823792222833006, 1.26633679754561 ] } },
{ "type": "Feature", "properties": { "Name": "TREE IN LODGE HOSTEL", "description": "", "HYPERLINK": "", "POSTALCODE": "199137", "KEEPERNAME": "TAN SWEE KIAN", "TOTALROOMS": "5", "ADDRESS": "5 JALAN PINANG CORAL HOSTEL", "INC_CRC": "18A45394CCB9CC7C", "FMEL_UPD_D": "20210128110627" }, "geometry": { "type": "Point", "coordinates": [ 103.858395163566996, 1.30262934394456 ] } },
{ "type": "Feature", "properties": { "Name": "Urban Hostel", "description": "", "HYPERLINK": "", "POSTALCODE": "388189", "KEEPERNAME": "Tan Kee Chong Derrick", "TOTALROOMS": "11", "ADDRESS": "67A Lorong 27 Geylang", "INC_CRC": "5296EC9681AE2B78", "FMEL_UPD_D": "20210128110627" }, "geometry": { "type": "Point", "coordinates": [ 103.883723595489002, 1.31612667222578 ] } },
{ "type": "Feature", "properties": { "Name": "V Hotel Bencoolen", "description": "", "HYPERLINK": "vhotel@vhotel.sg", "POSTALCODE": "189627", "KEEPERNAME": "Ng Lip Sek", "TOTALROOMS": "272", "ADDRESS": "48 Bencoolen Street", "INC_CRC": "6C886F3147D18975", "FMEL_UPD_D": "20210128110627" }, "geometry": { "type": "Point", "coordinates": [ 103.850763169011998, 1.29894385553217 ] } },
{ "type": "Feature", "properties": { "Name": "V Hotel Lavender", "description": "", "HYPERLINK": "vhotel@vhotel.sg", "POSTALCODE": "208767", "KEEPERNAME": "Edmund Yip Chak Mun", "TOTALROOMS": "888", "ADDRESS": "70 Jellicoe Road", "INC_CRC": "942397A2ACC2C0FB", "FMEL_UPD_D": "20210128110627" }, "geometry": { "type": "Point", "coordinates": [ 103.862525582448995, 1.3078092747122 ] } },
{ "type": "Feature", "properties": { "Name": "Venue Hotel The Lily", "description": "", "HYPERLINK": "venuelily@venuehotel.sg", "POSTALCODE": "427495", "KEEPERNAME": "Chu Poh Yong", "TOTALROOMS": "84", "ADDRESS": "238  Joo Chiat Road", "INC_CRC": "2B19BCD44D386A59", "FMEL_UPD_D": "20210128110627" }, "geometry": { "type": "Point", "coordinates": [ 103.900582467693994, 1.31154791813894 ] } },
{ "type": "Feature", "properties": { "Name": "Victoria Hotel", "description": "", "HYPERLINK": "reservations@victoriana.sg", "POSTALCODE": "188016", "KEEPERNAME": "Loo Wai Peng", "TOTALROOMS": "89", "ADDRESS": "87 VICTORIA STREET VICTORIA HOTEL", "INC_CRC": "76D40E76B9E09BF3", "FMEL_UPD_D": "20210128110627" }, "geometry": { "type": "Point", "coordinates": [ 103.852442326555007, 1.29709985440985 ] } },
{ "type": "Feature", "properties": { "Name": "Villa Samadhi Singapore", "description": "", "HYPERLINK": "", "POSTALCODE": "119193", "KEEPERNAME": "Federico Asaro", "TOTALROOMS": "20", "ADDRESS": "20 LABRADOR VILLA ROAD", "INC_CRC": "38719C979D096BF8", "FMEL_UPD_D": "20210128110627" }, "geometry": { "type": "Point", "coordinates": [ 103.800885641861001, 1.268937683637 ] } },
{ "type": "Feature", "properties": { "Name": "Village Hotel Albert Court", "description": "", "HYPERLINK": "info.vhac@fareast.com.sg", "POSTALCODE": "189971", "KEEPERNAME": "Terence Govinden", "TOTALROOMS": "210", "ADDRESS": "180 Albert Street", "INC_CRC": "FB48D644D3E9B88D", "FMEL_UPD_D": "20210128110627" }, "geometry": { "type": "Point", "coordinates": [ 103.85071667183, 1.30390260082807 ] } },
{ "type": "Feature", "properties": { "Name": "Village Hotel Bugis", "description": "", "HYPERLINK": "info.vhb@fareast.com.sg", "POSTALCODE": "188061", "KEEPERNAME": "Gill Ishwinder", "TOTALROOMS": "393", "ADDRESS": "390 Victoria Street", "INC_CRC": "8E7B1395FC168254", "FMEL_UPD_D": "20210128110627" }, "geometry": { "type": "Point", "coordinates": [ 103.857668954773004, 1.30192812751591 ] } },
{ "type": "Feature", "properties": { "Name": "Village Hotel Changi", "description": "", "HYPERLINK": "info.vhc@fareast.com.sg", "POSTALCODE": "508502", "KEEPERNAME": "Abdullah Ali  Basalamah", "TOTALROOMS": "380", "ADDRESS": "1 Netheravon Road", "INC_CRC": "D54C6534E925A6A6", "FMEL_UPD_D": "20210128110627" }, "geometry": { "type": "Point", "coordinates": [ 103.986061074378, 1.3904021092424 ] } },
{ "type": "Feature", "properties": { "Name": "Village Hotel Katong", "description": "", "HYPERLINK": "info.vhk@fareast.com.sg", "POSTALCODE": "449536", "KEEPERNAME": "ABDULLAH BIN ALI", "TOTALROOMS": "229", "ADDRESS": "25 Marine Parade Road", "INC_CRC": "EA762650511AB045", "FMEL_UPD_D": "20210128110627" }, "geometry": { "type": "Point", "coordinates": [ 103.902912251966995, 1.30377936120631 ] } },
{ "type": "Feature", "properties": { "Name": "Village Hotel Sentosa", "description": "", "HYPERLINK": "", "POSTALCODE": "99951", "KEEPERNAME": "JIM KHOO WEI KWAN", "TOTALROOMS": "606", "ADDRESS": "10 ARTILLERY AVENUE, # 02-01", "INC_CRC": "3ACCB4428D4691B9", "FMEL_UPD_D": "20210128110627" }, "geometry": { "type": "Point", "coordinates": [ 103.819943383465997, 1.25225951518977 ] } },
{ "type": "Feature", "properties": { "Name": "VIP Hotel", "description": "", "HYPERLINK": "booking@viphotel.com.sg", "POSTALCODE": "259895", "KEEPERNAME": "Peter Yang", "TOTALROOMS": "57", "ADDRESS": "5 Balmoral Crescent", "INC_CRC": "AAFED76C16C46740", "FMEL_UPD_D": "20210128110627" }, "geometry": { "type": "Point", "coordinates": [ 103.834573063565998, 1.3156477325095 ] } },
{ "type": "Feature", "properties": { "Name": "W Singapore Sentosa Cove Hotel", "description": "", "HYPERLINK": "", "POSTALCODE": "98374", "KEEPERNAME": "Heath Nicholas Robin", "TOTALROOMS": "240", "ADDRESS": "21 Ocean Way", "INC_CRC": "EC5BB01E7622254E", "FMEL_UPD_D": "20210128110627" }, "geometry": { "type": "Point", "coordinates": [ 103.842428148097994, 1.24616550353468 ] } },
{ "type": "Feature", "properties": { "Name": "Wanderlust", "description": "", "HYPERLINK": "", "POSTALCODE": "209494", "KEEPERNAME": "Ashish Manchharam", "TOTALROOMS": "29", "ADDRESS": "2 DICKSON ROAD", "INC_CRC": "E634CAE2151689A8", "FMEL_UPD_D": "20210128110627" }, "geometry": { "type": "Point", "coordinates": [ 103.854629633951006, 1.30512093794701 ] } },
{ "type": "Feature", "properties": { "Name": "Wink Hostel", "description": "", "HYPERLINK": "", "POSTALCODE": "59488", "KEEPERNAME": "Allan Lee @ Lee Kheen Woon", "TOTALROOMS": "9", "ADDRESS": "8A Mosque Street", "INC_CRC": "8CD89B41D968313E", "FMEL_UPD_D": "20210128110627" }, "geometry": { "type": "Point", "coordinates": [ 103.844144231952001, 1.28394841482097 ] } },
{ "type": "Feature", "properties": { "Name": "Wink Hostel @ Downtown", "description": "", "HYPERLINK": "", "POSTALCODE": "69044", "KEEPERNAME": "Chon Yik Mau", "TOTALROOMS": "10", "ADDRESS": "3B MCCALLUM STREET", "INC_CRC": "F61D800BB2361BCC", "FMEL_UPD_D": "20210128110627" }, "geometry": { "type": "Point", "coordinates": [ 103.847576359160001, 1.27968475056385 ] } },
{ "type": "Feature", "properties": { "Name": "XY HOTEL BUGIS by ASANDA HOTELS AND RESORTS", "description": "", "HYPERLINK": "bugis_accounts@xyglobalhotel.com", "POSTALCODE": "199323", "KEEPERNAME": "HAN BIN", "TOTALROOMS": "15", "ADDRESS": "11 JALAN KLAPA THE ARDENNES", "INC_CRC": "3359BC36EEED4017", "FMEL_UPD_D": "20210128110627" }, "geometry": { "type": "Point", "coordinates": [ 103.859686467654996, 1.30420913008075 ] } },
{ "type": "Feature", "properties": { "Name": "Yew Lian Hotel", "description": "", "HYPERLINK": "", "POSTALCODE": "389504", "KEEPERNAME": "Chang Ying", "TOTALROOMS": "18", "ADDRESS": "549A Geylang Road", "INC_CRC": "7D48A90F765B9B0D", "FMEL_UPD_D": "20210128110627" }, "geometry": { "type": "Point", "coordinates": [ 103.885504024450995, 1.31400085109484 ] } },
{ "type": "Feature", "properties": { "Name": "York Hotel", "description": "", "HYPERLINK": "enquiry@yorkhotel.com.sg", "POSTALCODE": "228516", "KEEPERNAME": "Khoo Elizabeth", "TOTALROOMS": "407", "ADDRESS": "21 Mount Elizabeth", "INC_CRC": "4CDA841E39CD3FBA", "FMEL_UPD_D": "20210128110627" }, "geometry": { "type": "Point", "coordinates": [ 103.835187499512003, 1.30692538671184 ] } },
{ "type": "Feature", "properties": { "Name": "YOTEL Singapore Orchard Road", "description": "", "HYPERLINK": "brendan.daly@yotel.com", "POSTALCODE": "238904", "KEEPERNAME": "DALY BRENDAN FRANCIS", "TOTALROOMS": "610", "ADDRESS": "366 ORCHARD ROAD", "INC_CRC": "6548D63CFF38A41D", "FMEL_UPD_D": "20210128110627" }, "geometry": { "type": "Point", "coordinates": [ 103.831347094611999, 1.30634429879401 ] } },
{ "type": "Feature", "properties": { "Name": "ZEN Rooms 1515", "description": "", "HYPERLINK": "", "POSTALCODE": "388607", "KEEPERNAME": "Muhammad Daniel Manivasagam", "TOTALROOMS": "78", "ADDRESS": "15 LORONG 15 GEYLANG", "INC_CRC": "D81433D99713952A", "FMEL_UPD_D": "20210128110627" }, "geometry": { "type": "Point", "coordinates": [ 103.878050332523003, 1.3131635740799 ] } },
{ "type": "Feature", "properties": { "Name": "Zen Rooms Oasis", "description": "", "HYPERLINK": "", "POSTALCODE": "387416", "KEEPERNAME": "RAJNEESH", "TOTALROOMS": "46", "ADDRESS": "56 SIMS AVENUE", "INC_CRC": "2247F2C1CFA5A1C6", "FMEL_UPD_D": "20210128110627" }, "geometry": { "type": "Point", "coordinates": [ 103.875894248568997, 1.3132565842406 ] } },
{ "type": "Feature", "properties": { "Name": "30 BENCOOLEN", "description": "", "HYPERLINK": "andrew.bastian@30bencoolen.com.sg", "POSTALCODE": "189621", "KEEPERNAME": "TAN KHENG HWEE", "TOTALROOMS": "131", "ADDRESS": "30 BENCOOLEN STREET", "INC_CRC": "45B03EF3320B1450", "FMEL_UPD_D": "20210105175725" }, "geometry": { "type": "Point", "coordinates": [ 103.850402269195001, 1.29850072017742 ] } },
{ "type": "Feature", "properties": { "Name": "Aqueen Hotel - Paya Lebar", "description": "", "HYPERLINK": "", "POSTALCODE": "409180", "KEEPERNAME": "Chan Boon Tat", "TOTALROOMS": "162", "ADDRESS": "33 Jalan Afifi", "INC_CRC": "112720F786F4FD2B", "FMEL_UPD_D": "20210105175726" }, "geometry": { "type": "Point", "coordinates": [ 103.891617685857995, 1.32208820086546 ] } },
{ "type": "Feature", "properties": { "Name": "Hotel 81 - Heritage", "description": "", "HYPERLINK": "hotel81@hotel81.com.sg", "POSTALCODE": "198985", "KEEPERNAME": "Chu Poh Yong", "TOTALROOMS": "64", "ADDRESS": "71 Jalan Sultan Road", "INC_CRC": "267ED9728B9AFBFC", "FMEL_UPD_D": "20210128110627" }, "geometry": { "type": "Point", "coordinates": [ 103.861299879306003, 1.30271606708357 ] } },
{ "type": "Feature", "properties": { "Name": "Hotel 81 - Hollywood", "description": "", "HYPERLINK": "hotel81@hotel81.com.sg", "POSTALCODE": "399121", "KEEPERNAME": "Chu Poh Yong", "TOTALROOMS": "112", "ADDRESS": "61 Lorong 8 Geylang", "INC_CRC": "626BFA3DD7DED2AA", "FMEL_UPD_D": "20210128110627" }, "geometry": { "type": "Point", "coordinates": [ 103.877447760284994, 1.31005583680827 ] } },
{ "type": "Feature", "properties": { "Name": "Hotel 81 - Joy", "description": "", "HYPERLINK": "hotel81@hotel81.com.sg", "POSTALCODE": "388703", "KEEPERNAME": "Chu Poh Yong", "TOTALROOMS": "42", "ADDRESS": "11 Lorong 11 Geylang", "INC_CRC": "72C0948FAE764D12", "FMEL_UPD_D": "20210128110627" }, "geometry": { "type": "Point", "coordinates": [ 103.876803320045994, 1.31278803988666 ] } },
{ "type": "Feature", "properties": { "Name": "Hotel 81 - Kovan", "description": "", "HYPERLINK": "hotel81@hotel81.com.sg", "POSTALCODE": "534636", "KEEPERNAME": "Chu Poh Yong", "TOTALROOMS": "89", "ADDRESS": "768 Upper Serangoon Road , # 02-01", "INC_CRC": "80EC1F370839C845", "FMEL_UPD_D": "20210128110627" }, "geometry": { "type": "Point", "coordinates": [ 103.878866751339004, 1.35420717029808 ] } },
{ "type": "Feature", "properties": { "Name": "Hotel 81 - Lucky", "description": "", "HYPERLINK": "hotel81@hotel81.com.sg", "POSTALCODE": "398741", "KEEPERNAME": "Chu Poh Yong", "TOTALROOMS": "77", "ADDRESS": "23 Lorong 20 Geylang", "INC_CRC": "B53E1B57F4840DD4", "FMEL_UPD_D": "20210128110627" }, "geometry": { "type": "Point", "coordinates": [ 103.881497891026001, 1.31187964409268 ] } },
{ "type": "Feature", "properties": { "Name": "hotel ascendere pte ltd", "description": "", "HYPERLINK": "", "POSTALCODE": "399035", "KEEPERNAME": "ONG KUM FATT", "TOTALROOMS": "25", "ADDRESS": "1 LORONG 10 GEYLANG", "INC_CRC": "0A3BE5865921B7E6", "FMEL_UPD_D": "20210128110627" }, "geometry": { "type": "Point", "coordinates": [ 103.877736767198996, 1.31192211161234 ] } },
{ "type": "Feature", "properties": { "Name": "Hotel Bencoolen", "description": "", "HYPERLINK": "enquiries@hotelbencoolen.com", "POSTALCODE": "189626", "KEEPERNAME": "Herman Gay Teow Hua", "TOTALROOMS": "84", "ADDRESS": "47 Bencoolen Street", "INC_CRC": "6277BB04642A8A23", "FMEL_UPD_D": "20210128110627" }, "geometry": { "type": "Point", "coordinates": [ 103.850108265483001, 1.29918672172522 ] } },
{ "type": "Feature", "properties": { "Name": "Hotel Bencoolen @ Hong Kong Street", "description": "", "HYPERLINK": "reservation.hkst@hotelbencoolen.com", "POSTALCODE": "59685", "KEEPERNAME": "Herman Gay Teow Hua", "TOTALROOMS": "33", "ADDRESS": "47 Hongkong Street", "INC_CRC": "ABEA22C7B13DD65E", "FMEL_UPD_D": "20210128110627" }, "geometry": { "type": "Point", "coordinates": [ 103.847672305859007, 1.28709359119965 ] } },
{ "type": "Feature", "properties": { "Name": "Hotel Boss", "description": "", "HYPERLINK": "contact@hotelboss.sg", "POSTALCODE": "199020", "KEEPERNAME": "Goh Kok Keong", "TOTALROOMS": "1500", "ADDRESS": "500 Jalan Sultan", "INC_CRC": "9EB09D9E82C19F56", "FMEL_UPD_D": "20210128110627" }, "geometry": { "type": "Point", "coordinates": [ 103.860266746950998, 1.30571322703811 ] } },
{ "type": "Feature", "properties": { "Name": "Hotel Calmo Bugis", "description": "", "HYPERLINK": "", "POSTALCODE": "189699", "KEEPERNAME": "CAI WENCHAO", "TOTALROOMS": "33", "ADDRESS": "95 BEACH ROAD", "INC_CRC": "2F395CEF60C76569", "FMEL_UPD_D": "20210128110627" }, "geometry": { "type": "Point", "coordinates": [ 103.856724365667006, 1.29750996934403 ] } },
{ "type": "Feature", "properties": { "Name": "Hotel Chancellor @ Orchard", "description": "", "HYPERLINK": "reservations@ghihotels.com.sg", "POSTALCODE": "229635", "KEEPERNAME": "TAN HWA LIAN", "TOTALROOMS": "488", "ADDRESS": "28 Cavenagh Road", "INC_CRC": "A82074A054106328", "FMEL_UPD_D": "20210128110627" }, "geometry": { "type": "Point", "coordinates": [ 103.841931936894994, 1.30145985771336 ] } },
{ "type": "Feature", "properties": { "Name": "HOTEL CLASSIC", "description": "", "HYPERLINK": "classic@venuehotel.sg", "POSTALCODE": "427353", "KEEPERNAME": "CHU POH YONG", "TOTALROOMS": "75", "ADDRESS": "12 JOO CHIAT ROAD", "INC_CRC": "081CAC71A8651432", "FMEL_UPD_D": "20210128110627" }, "geometry": { "type": "Point", "coordinates": [ 103.897717224380997, 1.31564279286247 ] } },
{ "type": "Feature", "properties": { "Name": "Hotel Clover 5 Hongkong Street", "description": "", "HYPERLINK": "enquiries@hotelclover5hongkongstreet.com", "POSTALCODE": "59648", "KEEPERNAME": "Teo Kok Hwee", "TOTALROOMS": "55", "ADDRESS": "5 Hongkong Street", "INC_CRC": "9DC21F773915C40A", "FMEL_UPD_D": "20210128110627" }, "geometry": { "type": "Point", "coordinates": [ 103.847840908099997, 1.28743138227384 ] } },
{ "type": "Feature", "properties": { "Name": "Hotel Clover 7 Hongkong Street", "description": "", "HYPERLINK": "enquiries@hotelclover.com", "POSTALCODE": "59650", "KEEPERNAME": "Teo Kok Hwee", "TOTALROOMS": "27", "ADDRESS": "7 HONGKONG STREET", "INC_CRC": "6E91038E536D2FE7", "FMEL_UPD_D": "20210128110627" }, "geometry": { "type": "Point", "coordinates": [ 103.847711703540995, 1.28746404866926 ] } },
{ "type": "Feature", "properties": { "Name": "Hotel Clover 769 North Bridge Road", "description": "", "HYPERLINK": "enquiries@hotelclover.com", "POSTALCODE": "198737", "KEEPERNAME": "Lee Soon Tai", "TOTALROOMS": "35", "ADDRESS": "769 North Bridge Road", "INC_CRC": "4DFBFFE332CDD181", "FMEL_UPD_D": "20210128110627" }, "geometry": { "type": "Point", "coordinates": [ 103.859584470770997, 1.30367081350441 ] } },
{ "type": "Feature", "properties": { "Name": "Hotel Clover The Arts", "description": "", "HYPERLINK": "", "POSTALCODE": "58689", "KEEPERNAME": "Ang Kian Kok", "TOTALROOMS": "44", "ADDRESS": "58 South Bridge Road", "INC_CRC": "9862AB3996CE343A", "FMEL_UPD_D": "20210128110627" }, "geometry": { "type": "Point", "coordinates": [ 103.848141341165004, 1.28754163889102 ] } },
{ "type": "Feature", "properties": { "Name": "Hotel Compass", "description": "", "HYPERLINK": "madelinelee@aqueenhotels.com", "POSTALCODE": "398693", "KEEPERNAME": "Chan Boon Tat", "TOTALROOMS": "49", "ADDRESS": "36 LORONG 22 GEYLANG HOTEL COMPASS", "INC_CRC": "264B11009A907FCE", "FMEL_UPD_D": "20210128110627" }, "geometry": { "type": "Point", "coordinates": [ 103.881864219755002, 1.31100479193402 ] } },
{ "type": "Feature", "properties": { "Name": "Hotel Conforto", "description": "", "HYPERLINK": "main@conforto.com.sg", "POSTALCODE": "59905", "KEEPERNAME": "Ng Wee Meng", "TOTALROOMS": "22", "ADDRESS": "16 Carpenter Street", "INC_CRC": "3D9C9954B7D4AA57", "FMEL_UPD_D": "20210128110627" }, "geometry": { "type": "Point", "coordinates": [ 103.847855885665993, 1.28834728764826 ] } },
{ "type": "Feature", "properties": { "Name": "Hotel Fort Canning", "description": "", "HYPERLINK": "contact@hfcsingapore.com", "POSTALCODE": "178881", "KEEPERNAME": "Oh Chee Eng", "TOTALROOMS": "86", "ADDRESS": "11 Canning Walk", "INC_CRC": "03AB1DCDDF5A751F", "FMEL_UPD_D": "20210128110627" }, "geometry": { "type": "Point", "coordinates": [ 103.845362056485001, 1.29581266426264 ] } },
{ "type": "Feature", "properties": { "Name": "Hotel Fuji", "description": "", "HYPERLINK": "hotelfuji.pl@gmail.com", "POSTALCODE": "399541", "KEEPERNAME": "Ho Siew Hwa", "TOTALROOMS": "30", "ADDRESS": "22 Jalan Molek", "INC_CRC": "AAEA72E3334FE227", "FMEL_UPD_D": "20210128110627" }, "geometry": { "type": "Point", "coordinates": [ 103.882676232074004, 1.31170570900502 ] } },
{ "type": "Feature", "properties": { "Name": "Hotel Grand Central", "description": "", "HYPERLINK": "accommodations@grandcentral.com.sg", "POSTALCODE": "229617", "KEEPERNAME": "Tan Hwa Lian", "TOTALROOMS": "263", "ADDRESS": "22 Cavenagh Road", "INC_CRC": "ED92F6ECB9D7B21F", "FMEL_UPD_D": "20210128110627" }, "geometry": { "type": "Point", "coordinates": [ 103.841767535762003, 1.3012946724269 ] } },
{ "type": "Feature", "properties": { "Name": "Hotel Grand Pacific", "description": "", "HYPERLINK": "accounts@hotelgrandpacific.com.sg", "POSTALCODE": "188018", "KEEPERNAME": "Wee Cheng Lim", "TOTALROOMS": "240", "ADDRESS": "101 Victoria Street", "INC_CRC": "B36B172E43BA4872", "FMEL_UPD_D": "20210128110627" }, "geometry": { "type": "Point", "coordinates": [ 103.852228308446001, 1.29755505808723 ] } },
{ "type": "Feature", "properties": { "Name": "Hotel Indigo Singapore Katong", "description": "", "HYPERLINK": "", "POSTALCODE": "428788", "KEEPERNAME": "Adel Aramouni", "TOTALROOMS": "131", "ADDRESS": "86 EAST COAST ROAD, # 01-01 KATONG SQUARE", "INC_CRC": "F5982FEE6CB33200", "FMEL_UPD_D": "20210128110627" }, "geometry": { "type": "Point", "coordinates": [ 103.904298453373002, 1.30511658100901 ] } },
{ "type": "Feature", "properties": { "Name": "Hotel Kai", "description": "", "HYPERLINK": "hst@hotelkai.com", "POSTALCODE": "188593", "KEEPERNAME": "Tan Hui See", "TOTALROOMS": "32", "ADDRESS": "14 Purvis Street", "INC_CRC": "7B30DFF3E64F94C0", "FMEL_UPD_D": "20210128110627" }, "geometry": { "type": "Point", "coordinates": [ 103.855405321377006, 1.29652178913596 ] } },
{ "type": "Feature", "properties": { "Name": "Hotel Mi", "description": "", "HYPERLINK": "contact@hotelmi.sg", "POSTALCODE": "189623", "KEEPERNAME": "Kusaka Masaharu", "TOTALROOMS": "342", "ADDRESS": "41 BENCOOLEN STREET, # 01-01", "INC_CRC": "AC77950686B7C716", "FMEL_UPD_D": "20210128110627" }, "geometry": { "type": "Point", "coordinates": [ 103.850020544638994, 1.29898582310214 ] } },
{ "type": "Feature", "properties": { "Name": "Hotel Michael", "description": "", "HYPERLINK": "enquiries@rwsentosa.com", "POSTALCODE": "98269", "KEEPERNAME": "Johansson Jan Fredrik", "TOTALROOMS": "464", "ADDRESS": "8 Sentosa Gateway", "INC_CRC": "B723D8A2225EF30B", "FMEL_UPD_D": "20210128110627" }, "geometry": { "type": "Point", "coordinates": [ 103.820219415167003, 1.25493344657437 ] } },
{ "type": "Feature", "properties": { "Name": "Hotel Miramar Singapore", "description": "", "HYPERLINK": "enquiry@miramar.com.sg", "POSTALCODE": "169631", "KEEPERNAME": "Lim Kian Tiong", "TOTALROOMS": "342", "ADDRESS": "401 Havelock Road", "INC_CRC": "64350D712DE76EB3", "FMEL_UPD_D": "20210128110627" }, "geometry": { "type": "Point", "coordinates": [ 103.837414948933002, 1.28821989466535 ] } },
{ "type": "Feature", "properties": { "Name": "Hotel Mono", "description": "", "HYPERLINK": "", "POSTALCODE": "59498", "KEEPERNAME": "QUAH TZE WEN, GLENN", "TOTALROOMS": "46", "ADDRESS": "18 MOSQUE STREET, # 01-04", "INC_CRC": "496E8371F0378CCE", "FMEL_UPD_D": "20210128110627" }, "geometry": { "type": "Point", "coordinates": [ 103.844451263067, 1.28379045079176 ] } },
{ "type": "Feature", "properties": { "Name": "Hotel NuVe Elements", "description": "", "HYPERLINK": "doreen.soh@hotelnuveheritage.com", "POSTALCODE": "59680", "KEEPERNAME": "SOH SHIL FANG, DOREEN", "TOTALROOMS": "24", "ADDRESS": "41 HONGKONG STREET", "INC_CRC": "29A39A158058CF62", "FMEL_UPD_D": "20210128110627" }, "geometry": { "type": "Point", "coordinates": [ 103.847485428195, 1.28723475456215 ] } },
{ "type": "Feature", "properties": { "Name": "Hotel NuVe Heritage", "description": "", "HYPERLINK": "", "POSTALCODE": "188592", "KEEPERNAME": "SOH SHIL NIE", "TOTALROOMS": "19", "ADDRESS": "13 PURVIS STREET ADONIS HOTEL", "INC_CRC": "5E4A09C945D05AC9", "FMEL_UPD_D": "20210128110627" }, "geometry": { "type": "Point", "coordinates": [ 103.855342376525996, 1.29651404832504 ] } },
{ "type": "Feature", "properties": { "Name": "Hotel NuVe Urbane", "description": "", "HYPERLINK": "", "POSTALCODE": "208582", "KEEPERNAME": "Soh Shil Fang Doreen", "TOTALROOMS": "62", "ADDRESS": "3 KING GEORGE'S AVENUE", "INC_CRC": "2D4A2D8B64B10A04", "FMEL_UPD_D": "20210128110627" }, "geometry": { "type": "Point", "coordinates": [ 103.858805131874007, 1.30732088892971 ] } },
{ "type": "Feature", "properties": { "Name": "Hotel Re! @ Pearl's Hill", "description": "", "HYPERLINK": "hr@hotelre.com.sg", "POSTALCODE": "169879", "KEEPERNAME": "Tan Kwee Hiang", "TOTALROOMS": "140", "ADDRESS": "175A Chin Swee Road", "INC_CRC": "70403A731948BA47", "FMEL_UPD_D": "20210128110627" }, "geometry": { "type": "Point", "coordinates": [ 103.838407284724994, 1.28541002481652 ] } },
{ "type": "Feature", "properties": { "Name": "Hotel Royal", "description": "", "HYPERLINK": "royal@hotelroyal.com.sg", "POSTALCODE": "307964", "KEEPERNAME": "Lee Chou Hock", "TOTALROOMS": "362", "ADDRESS": "36 Newton Road", "INC_CRC": "3EA4D0490223DC32", "FMEL_UPD_D": "20210128110627" }, "geometry": { "type": "Point", "coordinates": [ 103.841859487874004, 1.31683060092808 ] } },
{ "type": "Feature", "properties": { "Name": "Hotel Royal @ Queens", "description": "", "HYPERLINK": "info@royalqueens.com.sg", "POSTALCODE": "188553", "KEEPERNAME": "Lee Si Min", "TOTALROOMS": "231", "ADDRESS": "12 Queen Street", "INC_CRC": "DD88D65E669C525D", "FMEL_UPD_D": "20210128110627" }, "geometry": { "type": "Point", "coordinates": [ 103.852133093109998, 1.29752625749619 ] } },
{ "type": "Feature", "properties": { "Name": "Hotel Snow Lavender", "description": "", "HYPERLINK": "hotelsnow.lavender@gmail.com", "POSTALCODE": "209854", "KEEPERNAME": "Ngiam Seng Ngiap", "TOTALROOMS": "32", "ADDRESS": "26 CAVAN ROAD HOTEL SNOW", "INC_CRC": "7A21C3F177455E1C", "FMEL_UPD_D": "20210128110627" }, "geometry": { "type": "Point", "coordinates": [ 103.861821449556999, 1.31087924623786 ] } },
{ "type": "Feature", "properties": { "Name": "Hotel Soloha", "description": "", "HYPERLINK": "", "POSTALCODE": "88387", "KEEPERNAME": "Hu Yaocheng", "TOTALROOMS": "45", "ADDRESS": "12 TECK LIM ROAD", "INC_CRC": "9DBEF7F791FE0CC8", "FMEL_UPD_D": "20210128110627" }, "geometry": { "type": "Point", "coordinates": [ 103.841991814742002, 1.28037791620728 ] } },
{ "type": "Feature", "properties": { "Name": "Hotel Supreme", "description": "", "HYPERLINK": "", "POSTALCODE": "228750", "KEEPERNAME": "Ang Poh Seow", "TOTALROOMS": "86", "ADDRESS": "15 Kramat Road", "INC_CRC": "C198C339B5A67E14", "FMEL_UPD_D": "20210128110627" }, "geometry": { "type": "Point", "coordinates": [ 103.842424737463006, 1.30133935750645 ] } },
{ "type": "Feature", "properties": { "Name": "Hup Hoe Hotel", "description": "", "HYPERLINK": "", "POSTALCODE": "389525", "KEEPERNAME": "Tan Tong Wah", "TOTALROOMS": "10", "ADDRESS": "586A Geylang Road", "INC_CRC": "D2B28085C296E5E0", "FMEL_UPD_D": "20210128110627" }, "geometry": { "type": "Point", "coordinates": [ 103.887584117469004, 1.31396450261326 ] } },
{ "type": "Feature", "properties": { "Name": "ibis budget Singapore Bugis", "description": "", "HYPERLINK": "contact@fragrancehotel.com", "POSTALCODE": "188942", "KEEPERNAME": "Tan Thuang Wee", "TOTALROOMS": "84", "ADDRESS": "33 Middle Road", "INC_CRC": "88B24860086EF704", "FMEL_UPD_D": "20210128110627" }, "geometry": { "type": "Point", "coordinates": [ 103.855556164288998, 1.29692081795715 ] } },
{ "type": "Feature", "properties": { "Name": "ibis budget Singapore Clarke Quay", "description": "", "HYPERLINK": "contact@fragrancehotel.com", "POSTALCODE": "59663", "KEEPERNAME": "Tan Thuang Wee", "TOTALROOMS": "101", "ADDRESS": "20 Hongkong Street", "INC_CRC": "484A83EA6AB7C110", "FMEL_UPD_D": "20210128110627" }, "geometry": { "type": "Point", "coordinates": [ 103.847146355817003, 1.28789594572544 ] } },
{ "type": "Feature", "properties": { "Name": "ibis budget Singapore Crystal", "description": "", "HYPERLINK": "contact@fragrancehotel.com", "POSTALCODE": "398824", "KEEPERNAME": "GAN KUAN YEW", "TOTALROOMS": "125", "ADDRESS": "50 Lorong 18 Geylang", "INC_CRC": "6AA223E6177E038D", "FMEL_UPD_D": "20210128110627" }, "geometry": { "type": "Point", "coordinates": [ 103.880589488414998, 1.31057497568161 ] } },
{ "type": "Feature", "properties": { "Name": "ibis budget Singapore Emerald", "description": "", "HYPERLINK": "contact@fragrancehotel.com", "POSTALCODE": "399174", "KEEPERNAME": "Gan Kuan Yew", "TOTALROOMS": "126", "ADDRESS": "20 Lorong 6 Geylang", "INC_CRC": "91DAF06E228672DC", "FMEL_UPD_D": "20210128110627" }, "geometry": { "type": "Point", "coordinates": [ 103.876341748038996, 1.31100987837705 ] } },
{ "type": "Feature", "properties": { "Name": "ibis budget Singapore Imperial", "description": "", "HYPERLINK": "contact@fragrancehotel.com", "POSTALCODE": "208187", "KEEPERNAME": "Sun Yi", "TOTALROOMS": "74", "ADDRESS": "28 Penhas Road", "INC_CRC": "F9DCAA8E0FF53F30", "FMEL_UPD_D": "20210128110627" }, "geometry": { "type": "Point", "coordinates": [ 103.862425383982995, 1.30963597847065 ] } },
{ "type": "Feature", "properties": { "Name": "ibis budget Singapore Joo Chiat", "description": "", "HYPERLINK": "contact@fragrancehotel.com", "POSTALCODE": "427485", "KEEPERNAME": "GAN KUAN YEW", "TOTALROOMS": "90", "ADDRESS": "219 Joo Chiat Road", "INC_CRC": "A714BE3A8B374FB0", "FMEL_UPD_D": "20210128110627" }, "geometry": { "type": "Point", "coordinates": [ 103.901246641878998, 1.31149574993698 ] } },
{ "type": "Feature", "properties": { "Name": "K Hotel 8", "description": "", "HYPERLINK": "", "POSTALCODE": "399099", "KEEPERNAME": "CAI WENCHAO", "TOTALROOMS": "27", "ADDRESS": "37 LORONG 8 GEYLANG", "INC_CRC": "79215385E3D73497", "FMEL_UPD_D": "20210105175726" }, "geometry": { "type": "Point", "coordinates": [ 103.877397285255995, 1.31067428643295 ] } },
{ "type": "Feature", "properties": { "Name": "ibis budget Singapore Mount Faber", "description": "", "HYPERLINK": "contact@fragrancehotel.com", "POSTALCODE": "98838", "KEEPERNAME": "Sun Yi", "TOTALROOMS": "32", "ADDRESS": "400 Telok Blangah Road", "INC_CRC": "63EA28232CBF6295", "FMEL_UPD_D": "20210128110627" }, "geometry": { "type": "Point", "coordinates": [ 103.813874982995003, 1.26970676465938 ] } },
{ "type": "Feature", "properties": { "Name": "ibis budget Singapore Pearl", "description": "", "HYPERLINK": "contact@fragrancehotel.com", "POSTALCODE": "398961", "KEEPERNAME": "GAN KUAN YEW", "TOTALROOMS": "129", "ADDRESS": "21 Lorong 14 Geylang", "INC_CRC": "298ADD99D17D9CBA", "FMEL_UPD_D": "20210128110627" }, "geometry": { "type": "Point", "coordinates": [ 103.879289173768001, 1.31156055920328 ] } },
{ "type": "Feature", "properties": { "Name": "ibis budget Singapore Ruby", "description": "", "HYPERLINK": "contact@fragrancehotel.com", "POSTALCODE": "398730", "KEEPERNAME": "Gan Kuan yew", "TOTALROOMS": "168", "ADDRESS": "10 Lorong 20 Geylang", "INC_CRC": "DDDC8B366E3CAF0A", "FMEL_UPD_D": "20210128110627" }, "geometry": { "type": "Point", "coordinates": [ 103.881097098283007, 1.31223807766207 ] } },
{ "type": "Feature", "properties": { "Name": "ibis budget Singapore Sapphire", "description": "", "HYPERLINK": "contact@fragrancehotel.com", "POSTALCODE": "399037", "KEEPERNAME": "GAN KUAN YEW", "TOTALROOMS": "50", "ADDRESS": "3 Lorong 10 Geylang", "INC_CRC": "C81A404066009054", "FMEL_UPD_D": "20210128110627" }, "geometry": { "type": "Point", "coordinates": [ 103.877769447217005, 1.31175754744813 ] } },
{ "type": "Feature", "properties": { "Name": "ibis budget Singapore Selegie", "description": "", "HYPERLINK": "contact@fragrancehotel.com", "POSTALCODE": "188329", "KEEPERNAME": "Tan Thuang Wee", "TOTALROOMS": "95", "ADDRESS": "183 Selegie Road", "INC_CRC": "E202BBE79158BF24", "FMEL_UPD_D": "20210128110627" }, "geometry": { "type": "Point", "coordinates": [ 103.849948919677004, 1.30376527735541 ] } },
{ "type": "Feature", "properties": { "Name": "ibis budget Singapore West Coast", "description": "", "HYPERLINK": "contact@fragrancehotel.com", "POSTALCODE": "118759", "KEEPERNAME": "Sun Yi", "TOTALROOMS": "57", "ADDRESS": "418 Pasir Panjang Road", "INC_CRC": "0D3FCE03B884E7AA", "FMEL_UPD_D": "20210128110627" }, "geometry": { "type": "Point", "coordinates": [ 103.768888272797, 1.2922089251387 ] } },
{ "type": "Feature", "properties": { "Name": "Ibis Singapore Novena", "description": "", "HYPERLINK": "", "POSTALCODE": "329543", "KEEPERNAME": "Lui Cheng Yan Josephine", "TOTALROOMS": "241", "ADDRESS": "6 Irrawaddy Road", "INC_CRC": "D0FE7701947F4ADF", "FMEL_UPD_D": "20210128110627" }, "geometry": { "type": "Point", "coordinates": [ 103.845545056163004, 1.32614785361247 ] } },
{ "type": "Feature", "properties": { "Name": "Ibis Singapore on Bencoolen", "description": "", "HYPERLINK": "H6657@accor.com", "POSTALCODE": "189657", "KEEPERNAME": "David Malcolm Lane", "TOTALROOMS": "538", "ADDRESS": "170 Bencoolen Street", "INC_CRC": "CE29B88E538416F1", "FMEL_UPD_D": "20210128110627" }, "geometry": { "type": "Point", "coordinates": [ 103.852422678332999, 1.30096316425159 ] } },
{ "type": "Feature", "properties": { "Name": "InterContinental Singapore", "description": "", "HYPERLINK": "singapore@interconti.com", "POSTALCODE": "188966", "KEEPERNAME": "Andreas Kraemer", "TOTALROOMS": "403", "ADDRESS": "80 Middle Road", "INC_CRC": "2A3A1F6BDD686CD9", "FMEL_UPD_D": "20210128110627" }, "geometry": { "type": "Point", "coordinates": [ 103.854867046362003, 1.29846962637 ] } },
{ "type": "Feature", "properties": { "Name": "InterContinental Singapore Robertson Quay", "description": "", "HYPERLINK": "info.sinic@ihg.com", "POSTALCODE": "238909", "KEEPERNAME": "Tania Krassimirova Getzova", "TOTALROOMS": "225", "ADDRESS": "1 NANSON ROAD", "INC_CRC": "B7C8F6B53B111D38", "FMEL_UPD_D": "20210128110627" }, "geometry": { "type": "Point", "coordinates": [ 103.838551707064994, 1.28984102269144 ] } },
{ "type": "Feature", "properties": { "Name": "iStay.inn", "description": "", "HYPERLINK": "info@istayinn.com.sg", "POSTALCODE": "58764", "KEEPERNAME": "Lim So Geok", "TOTALROOMS": "18", "ADDRESS": "215A South Bridge Road", "INC_CRC": "83F4C4AB0AD7E599", "FMEL_UPD_D": "20210128110627" }, "geometry": { "type": "Point", "coordinates": [ 103.845924101604993, 1.28298235047301 ] } },
{ "type": "Feature", "properties": { "Name": "J8 Hotel", "description": "", "HYPERLINK": "hq@j8hotel.com", "POSTALCODE": "207606", "KEEPERNAME": "Joseph Lee Boon Leng", "TOTALROOMS": "98", "ADDRESS": "8 Townshend Road", "INC_CRC": "15783D1CB558B0A1", "FMEL_UPD_D": "20210128110627" }, "geometry": { "type": "Point", "coordinates": [ 103.858520506323998, 1.30769755698718 ] } },
{ "type": "Feature", "properties": { "Name": "Jade Hotel", "description": "", "HYPERLINK": "eddyswee2017@gmail.com", "POSTALCODE": "399535", "KEEPERNAME": "Suey Hueh King", "TOTALROOMS": "36", "ADDRESS": "18 Jalan Molek", "INC_CRC": "74D42465590C16D6", "FMEL_UPD_D": "20210128110627" }, "geometry": { "type": "Point", "coordinates": [ 103.882775886651004, 1.31171183228565 ] } },
{ "type": "Feature", "properties": { "Name": "Jayleen 1918 Hotel", "description": "", "HYPERLINK": "james@jayleen1918.com.sg", "POSTALCODE": "59921", "KEEPERNAME": "James Frederick Chong Kah Yean", "TOTALROOMS": "40", "ADDRESS": "42 Carpenter Street", "INC_CRC": "2816145A466EAFA7", "FMEL_UPD_D": "20210128110627" }, "geometry": { "type": "Point", "coordinates": [ 103.847932686158998, 1.28778717516192 ] } },
{ "type": "Feature", "properties": { "Name": "Jayleen Clarke Quay Hotel", "description": "", "HYPERLINK": "jayleenclarkequay@gmail.com", "POSTALCODE": "59390", "KEEPERNAME": "James Federick Chong Kah Yean", "TOTALROOMS": "20", "ADDRESS": "25 New Bridge Road", "INC_CRC": "FB331A5207372FF2", "FMEL_UPD_D": "20210128110627" }, "geometry": { "type": "Point", "coordinates": [ 103.847502570640998, 1.28871525038832 ] } },
{ "type": "Feature", "properties": { "Name": "K Space Inn 569", "description": "", "HYPERLINK": "", "POSTALCODE": "218184", "KEEPERNAME": "CAI WENCHAO", "TOTALROOMS": "7", "ADDRESS": "569 SERANGOON ROAD 60'S HOSTEL", "INC_CRC": "732F33D9582A2253", "FMEL_UPD_D": "20210105175726" }, "geometry": { "type": "Point", "coordinates": [ 103.858144106984, 1.31559230859372 ] } },
{ "type": "Feature", "properties": { "Name": "JEN Singapore Tanglin by Shangri-La", "description": "", "HYPERLINK": "singaporetanglin@hoteljen.com", "POSTALCODE": "249716", "KEEPERNAME": "Kuok Oon Kwong", "TOTALROOMS": "565", "ADDRESS": "1A Cuscaden Road", "INC_CRC": "B5529ACF9E6012E4", "FMEL_UPD_D": "20210128110627" }, "geometry": { "type": "Point", "coordinates": [ 103.823912360589006, 1.3042705309298 ] } },
{ "type": "Feature", "properties": { "Name": "JH HOTEL", "description": "", "HYPERLINK": "anguskt@gmail.com", "POSTALCODE": "399041", "KEEPERNAME": "CHEN ZHIQIONG", "TOTALROOMS": "42", "ADDRESS": "8 LORONG 10 GEYLANG", "INC_CRC": "A22CE6E92D6AEBF0", "FMEL_UPD_D": "20210128110627" }, "geometry": { "type": "Point", "coordinates": [ 103.877460163671998, 1.311585869313 ] } },
{ "type": "Feature", "properties": { "Name": "Ji Hotel Orchard Singapore", "description": "", "HYPERLINK": "", "POSTALCODE": "238485", "KEEPERNAME": "Koo Sheuan", "TOTALROOMS": "81", "ADDRESS": "11 PENANG LANE INNOTEL", "INC_CRC": "66BD9D0F880BBBD4", "FMEL_UPD_D": "20210128110627" }, "geometry": { "type": "Point", "coordinates": [ 103.844455112735005, 1.29772283974699 ] } },
{ "type": "Feature", "properties": { "Name": "Jin Dong Hotel", "description": "", "HYPERLINK": "", "POSTALCODE": "399007", "KEEPERNAME": "ong kum fatt", "TOTALROOMS": "33", "ADDRESS": "33 Lorong 12 Geylang", "INC_CRC": "D7209ADD0712A1B6", "FMEL_UPD_D": "20210128110627" }, "geometry": { "type": "Point", "coordinates": [ 103.878806736819996, 1.31022734045131 ] } },
{ "type": "Feature", "properties": { "Name": "Joyfor Singapore", "description": "", "HYPERLINK": "joyfor.sg@gmail.com", "POSTALCODE": "389226", "KEEPERNAME": "Koo Seck Chong", "TOTALROOMS": "17", "ADDRESS": "135 Geylang Road", "INC_CRC": "D30116664B182FD0", "FMEL_UPD_D": "20210128110627" }, "geometry": { "type": "Point", "coordinates": [ 103.873959999288999, 1.31118301196188 ] } },
{ "type": "Feature", "properties": { "Name": "JW Marriott Hotel Singapore South Beach", "description": "", "HYPERLINK": "jw.sinjw.contactus@marriott.com", "POSTALCODE": "189763", "KEEPERNAME": "STEPHANE LOUIS FABREGOUL", "TOTALROOMS": "634", "ADDRESS": "30 Beach Road", "INC_CRC": "7A601D8BEC62E672", "FMEL_UPD_D": "20210128110627" }, "geometry": { "type": "Point", "coordinates": [ 103.855516058722998, 1.29465290571138 ] } },
{ "type": "Feature", "properties": { "Name": "K Hotel", "description": "", "HYPERLINK": "", "POSTALCODE": "399199", "KEEPERNAME": "CAI WENCHAO", "TOTALROOMS": "56", "ADDRESS": "44 LORONG 6 GEYLANG", "INC_CRC": "0BE03789A9C46C8B", "FMEL_UPD_D": "20210128110627" }, "geometry": { "type": "Point", "coordinates": [ 103.876502260861997, 1.30999424174174 ] } },
{ "type": "Feature", "properties": { "Name": "K HOTEL 12", "description": "", "HYPERLINK": "", "POSTALCODE": "399045", "KEEPERNAME": "CAI WENCHAO", "TOTALROOMS": "28", "ADDRESS": "12 LORONG 10 GEYLANG", "INC_CRC": "FDFE52E2A7DA73CF", "FMEL_UPD_D": "20210128110627" }, "geometry": { "type": "Point", "coordinates": [ 103.877512889798993, 1.31128855675534 ] } },
{ "type": "Feature", "properties": { "Name": "K2 Guesthouse Central", "description": "", "HYPERLINK": "", "POSTALCODE": "208852", "KEEPERNAME": "WOON LI MING RACHEL", "TOTALROOMS": "15", "ADDRESS": "134 JALAN BESAR", "INC_CRC": "2D2347DBCF59C246", "FMEL_UPD_D": "20210128110627" }, "geometry": { "type": "Point", "coordinates": [ 103.856401207738998, 1.30668645165441 ] } },
{ "type": "Feature", "properties": { "Name": "Asphodel Inn", "description": "", "HYPERLINK": "asphoinn@yahoo.com.sg", "POSTALCODE": "218702", "KEEPERNAME": "Ong Poi Hwa", "TOTALROOMS": "55", "ADDRESS": "380 Race Course Road (Level 2)", "INC_CRC": "2AA296091FCD297F", "FMEL_UPD_D": "20210128110627" }, "geometry": { "type": "Point", "coordinates": [ 103.857271555227001, 1.31503287812628 ] } },
{ "type": "Feature", "properties": { "Name": "Backpacker Cozy Corner Guesthouse", "description": "", "HYPERLINK": "happyjohn@cozycornerguest.com", "POSTALCODE": "188736", "KEEPERNAME": "TEO FA YU, ALVIN", "TOTALROOMS": "15", "ADDRESS": "490 North Bridge Road (Level 2)", "INC_CRC": "9F6A6D4F9D2A2BFA", "FMEL_UPD_D": "20210128110627" }, "geometry": { "type": "Point", "coordinates": [ 103.855776386800997, 1.29837018983763 ] } },
{ "type": "Feature", "properties": { "Name": "Balestier Hotel", "description": "", "HYPERLINK": "balestier_hotel@yahoo.com", "POSTALCODE": "329842", "KEEPERNAME": "Chia Kwee Beng", "TOTALROOMS": "42", "ADDRESS": "471 Balestier Road", "INC_CRC": "FDA67B664B69CB8C", "FMEL_UPD_D": "20210128110627" }, "geometry": { "type": "Point", "coordinates": [ 103.847825737272004, 1.3263318785208 ] } },
{ "type": "Feature", "properties": { "Name": "Beach Villas", "description": "", "HYPERLINK": "enquires@rwsentosa.com", "POSTALCODE": "98135", "KEEPERNAME": "Johansson Jan Fredrik", "TOTALROOMS": "35", "ADDRESS": "20 Sentosa Gateway", "INC_CRC": "92A0A0E93189F59D", "FMEL_UPD_D": "20210128110627" }, "geometry": { "type": "Point", "coordinates": [ 103.81654785488, 1.25923773923788 ] } },
{ "type": "Feature", "properties": { "Name": "Beary Best! Hostel", "description": "", "HYPERLINK": "enquiry@abearygoodhostel.com", "POSTALCODE": "58332", "KEEPERNAME": "Teo Pei Han Janine", "TOTALROOMS": "11", "ADDRESS": "18 Upper Cross Street", "INC_CRC": "3C184E1C616FE499", "FMEL_UPD_D": "20210128110627" }, "geometry": { "type": "Point", "coordinates": [ 103.845381173329997, 1.28384606770696 ] } },
{ "type": "Feature", "properties": { "Name": "Mandarin Oriental, Singapore", "description": "", "HYPERLINK": "", "POSTALCODE": "39797", "KEEPERNAME": "Christian Andreas Hassing", "TOTALROOMS": "527", "ADDRESS": "5 Raffles Avenue Marina Square", "INC_CRC": "D9935D84C8C1EF1F", "FMEL_UPD_D": "20210128110627" }, "geometry": { "type": "Point", "coordinates": [ 103.858323986494, 1.29066058376185 ] } },
{ "type": "Feature", "properties": { "Name": "Kim Tian Hotel", "description": "", "HYPERLINK": "", "POSTALCODE": "398678", "KEEPERNAME": "Steven Han How Chye", "TOTALROOMS": "47", "ADDRESS": "21 Lorong 22 Geylang", "INC_CRC": "CFBF74093BAC96B4", "FMEL_UPD_D": "20210105175726" }, "geometry": { "type": "Point", "coordinates": [ 103.882458725423007, 1.31205758973578 ] } },
{ "type": "Feature", "properties": { "Name": "Marrison @ Desker", "description": "", "HYPERLINK": "reservations@marrisonhotel.com", "POSTALCODE": "209598", "KEEPERNAME": "Silvi", "TOTALROOMS": "25", "ADDRESS": "75 Desker Road", "INC_CRC": "F674CA9F409D7914", "FMEL_UPD_D": "20210128110627" }, "geometry": { "type": "Point", "coordinates": [ 103.855693846612994, 1.30887261138248 ] } },
{ "type": "Feature", "properties": { "Name": "Marrison Hotel", "description": "", "HYPERLINK": "reservations@marrisonhotel.com", "POSTALCODE": "189704", "KEEPERNAME": "Silvi", "TOTALROOMS": "96", "ADDRESS": "103 Beach Road", "INC_CRC": "A95F3C2475BEB75E", "FMEL_UPD_D": "20210128110627" }, "geometry": { "type": "Point", "coordinates": [ 103.857087531076999, 1.2978909223511 ] } },
{ "type": "Feature", "properties": { "Name": "Maxwell Reserve", "description": "", "HYPERLINK": "", "POSTALCODE": "78857", "KEEPERNAME": "Harpreet Kaur Bedi", "TOTALROOMS": "138", "ADDRESS": "2 COOK STREET", "INC_CRC": "EE242E78B0F09290", "FMEL_UPD_D": "20210128110627" }, "geometry": { "type": "Point", "coordinates": [ 103.844367354691002, 1.27915221128811 ] } },
{ "type": "Feature", "properties": { "Name": "Mayo Inn", "description": "", "HYPERLINK": "admin@mayoinn.com", "POSTALCODE": "208786", "KEEPERNAME": "Terrance Tay Yew Soon", "TOTALROOMS": "22", "ADDRESS": "9 Jalan Besar", "INC_CRC": "CCB8DFF7E4E46704", "FMEL_UPD_D": "20210128110627" }, "geometry": { "type": "Point", "coordinates": [ 103.854120522794005, 1.30392257669472 ] } },
{ "type": "Feature", "properties": { "Name": "Meadows Hostel", "description": "", "HYPERLINK": "meadowshostel@gmail.com", "POSTALCODE": "209178", "KEEPERNAME": "Charlie Chia", "TOTALROOMS": "6", "ADDRESS": "7A Hamilton Road", "INC_CRC": "9FCF49363901BCC3", "FMEL_UPD_D": "20210128110627" }, "geometry": { "type": "Point", "coordinates": [ 103.860677173023007, 1.31139113939717 ] } },
{ "type": "Feature", "properties": { "Name": "Mercure Singapore Bugis", "description": "", "HYPERLINK": "", "POSTALCODE": "188973", "KEEPERNAME": "Wong Weng Fatt, Philip", "TOTALROOMS": "395", "ADDRESS": "122 MIDDLE ROAD MIDLINK PLAZA", "INC_CRC": "4FE69DFC3D1763AE", "FMEL_UPD_D": "20210128110627" }, "geometry": { "type": "Point", "coordinates": [ 103.853083051197999, 1.29963654287271 ] } },
{ "type": "Feature", "properties": { "Name": "Mercure Singapore on Stevens", "description": "", "HYPERLINK": "H9561-gm@accor.com", "POSTALCODE": "257878", "KEEPERNAME": "Kevin Glenn Bossino", "TOTALROOMS": "518", "ADDRESS": "28 STEVENS ROAD, # 02-01", "INC_CRC": "736907AABFF2A851", "FMEL_UPD_D": "20210128110627" }, "geometry": { "type": "Point", "coordinates": [ 103.828399493405996, 1.31394109858619 ] } },
{ "type": "Feature", "properties": { "Name": "Meriton Hotel", "description": "", "HYPERLINK": "jackson@hotel165.sg", "POSTALCODE": "208804", "KEEPERNAME": "Teo Ai Choo", "TOTALROOMS": "40", "ADDRESS": "43A Jalan Besar", "INC_CRC": "3C69BB608AC852EB", "FMEL_UPD_D": "20210128110627" }, "geometry": { "type": "Point", "coordinates": [ 103.854659348387997, 1.30474091460126 ] } },
{ "type": "Feature", "properties": { "Name": "MKS Backpackers' Hostel", "description": "", "HYPERLINK": "", "POSTALCODE": "209757", "KEEPERNAME": "Muthukumaran S\/O Varthan", "TOTALROOMS": "5", "ADDRESS": "44 Cuff Road", "INC_CRC": "303A28DBA8243689", "FMEL_UPD_D": "20210128110627" }, "geometry": { "type": "Point", "coordinates": [ 103.853524372799001, 1.30679667251442 ] } },
{ "type": "Feature", "properties": { "Name": "Moni Gallery Hostel", "description": "", "HYPERLINK": "enquiry@monigalleryhostel.com", "POSTALCODE": "338795", "KEEPERNAME": "Muhammad Syafiee Bin Fidrishah", "TOTALROOMS": "9", "ADDRESS": "263 Lavender Street", "INC_CRC": "231ECF36D2928E69", "FMEL_UPD_D": "20210128110627" }, "geometry": { "type": "Point", "coordinates": [ 103.858988963032999, 1.31544170610706 ] } },
{ "type": "Feature", "properties": { "Name": "Mori Hostel", "description": "", "HYPERLINK": "", "POSTALCODE": "218675", "KEEPERNAME": "LIEW SHIEN PEI", "TOTALROOMS": "8", "ADDRESS": "429 RACE COURSE ROAD MORI HOSTEL", "INC_CRC": "FC2D3CDDCFED9BF9", "FMEL_UPD_D": "20210128110627" }, "geometry": { "type": "Point", "coordinates": [ 103.857588989533994, 1.31594847999958 ] } },
{ "type": "Feature", "properties": { "Name": "Naumi", "description": "", "HYPERLINK": "", "POSTALCODE": "188396", "KEEPERNAME": "Surya Kumar Jhunjhnuwala", "TOTALROOMS": "73", "ADDRESS": "41 SEAH STREET NAUMI", "INC_CRC": "A6D1E2CAA630EA6F", "FMEL_UPD_D": "20210128110627" }, "geometry": { "type": "Point", "coordinates": [ 103.855181687111994, 1.29586808458378 ] } },
{ "type": "Feature", "properties": { "Name": "New Cape Inn", "description": "", "HYPERLINK": "", "POSTALCODE": "168891", "KEEPERNAME": "Chan Albert Graeme", "TOTALROOMS": "76", "ADDRESS": "3 SENG POH ROAD GREEN WORLD", "INC_CRC": "7F64CEFDF2ECF3DF", "FMEL_UPD_D": "20210128110627" }, "geometry": { "type": "Point", "coordinates": [ 103.834075884941996, 1.28556429182439 ] } },
{ "type": "Feature", "properties": { "Name": "New Cathay Hotel (Geylang)", "description": "", "HYPERLINK": "newcathayhotel@yahoo.com.sg", "POSTALCODE": "389403", "KEEPERNAME": "Timothy Seah How Ming", "TOTALROOMS": "53", "ADDRESS": "443A Geylang Road", "INC_CRC": "9A317298E2DC1AFC", "FMEL_UPD_D": "20210128110627" }, "geometry": { "type": "Point", "coordinates": [ 103.881747206922995, 1.31323581232938 ] } },
{ "type": "Feature", "properties": { "Name": "New Orchid Hotel", "description": "", "HYPERLINK": "neworchidhotel@hotmail.com", "POSTALCODE": "329777", "KEEPERNAME": "Lim Lay Meng", "TOTALROOMS": "68", "ADDRESS": "347 Balestier Road", "INC_CRC": "CF6430A3F11D1978", "FMEL_UPD_D": "20210128110627" }, "geometry": { "type": "Point", "coordinates": [ 103.851039428579995, 1.32429128090849 ] } },
{ "type": "Feature", "properties": { "Name": "New Society Backpacker", "description": "", "HYPERLINK": "newsoc259@gmail.com", "POSTALCODE": "208934", "KEEPERNAME": "Ho Chiuen Sheey", "TOTALROOMS": "4", "ADDRESS": "259A Jalan Besar", "INC_CRC": "2A49668782EE61A8", "FMEL_UPD_D": "20210128110627" }, "geometry": { "type": "Point", "coordinates": [ 103.858259328995004, 1.31023794252736 ] } },
{ "type": "Feature", "properties": { "Name": "Novotel Singapore On Stevens", "description": "", "HYPERLINK": "H9543-gm@accor.com", "POSTALCODE": "257878", "KEEPERNAME": "Kevin Glenn Bossino", "TOTALROOMS": "254", "ADDRESS": "28 STEVENS ROAD, # 01-01", "INC_CRC": "736907AA25FE4DFE", "FMEL_UPD_D": "20210128110627" }, "geometry": { "type": "Point", "coordinates": [ 103.828399493405996, 1.31394109858619 ] } },
{ "type": "Feature", "properties": { "Name": "OAKWOOD PREMIER AMTD SINGAPORE", "description": "", "HYPERLINK": "", "POSTALCODE": "68809", "KEEPERNAME": "Roy Liang Ming Kai", "TOTALROOMS": "268", "ADDRESS": "6 SHENTON WAY, # 07-01 OUE DOWNTOWN", "INC_CRC": "7205A5535E1146FF", "FMEL_UPD_D": "20210128110627" }, "geometry": { "type": "Point", "coordinates": [ 103.848408637443001, 1.27698070007554 ] } },
{ "type": "Feature", "properties": { "Name": "Oasia Hotel Downtown, Singapore", "description": "", "HYPERLINK": "reseasy@fareast.com.sg", "POSTALCODE": "79333", "KEEPERNAME": "Chai Khye Yeien", "TOTALROOMS": "314", "ADDRESS": "100 Peck Seah Street", "INC_CRC": "0A3AC604F6E09AC9", "FMEL_UPD_D": "20210128110627" }, "geometry": { "type": "Point", "coordinates": [ 103.844244859295003, 1.27585063042586 ] } },
{ "type": "Feature", "properties": { "Name": "Oasia Hotel Novena, Singapore", "description": "", "HYPERLINK": "frontofc.ohs@fareast.com.sg", "POSTALCODE": "307470", "KEEPERNAME": "Karamjit Kaur", "TOTALROOMS": "428", "ADDRESS": "8 Sinaran Drive", "INC_CRC": "80CA87F8734D9CC5", "FMEL_UPD_D": "20210128110627" }, "geometry": { "type": "Point", "coordinates": [ 103.844782388216004, 1.32003004588439 ] } },
{ "type": "Feature", "properties": { "Name": "Oasia Resort Sentosa", "description": "", "HYPERLINK": "", "POSTALCODE": "98679", "KEEPERNAME": "KHOO WEI KWAN JIM", "TOTALROOMS": "191", "ADDRESS": "23 BEACH VIEW LE MERIDIEN SINGAPORE, SENTOSA", "INC_CRC": "601E97AE26933072", "FMEL_UPD_D": "20210128110627" }, "geometry": { "type": "Point", "coordinates": [ 103.819557568830007, 1.25329365829851 ] } },
{ "type": "Feature", "properties": { "Name": "One Farrer Hotel", "description": "", "HYPERLINK": "", "POSTALCODE": "217562", "KEEPERNAME": "Gilbert Madhavan", "TOTALROOMS": "249", "ADDRESS": "1 Farrer Park Station Road", "INC_CRC": "F37D68990972A74D", "FMEL_UPD_D": "20210128110627" }, "geometry": { "type": "Point", "coordinates": [ 103.853842196119004, 1.31275667459011 ] } },
{ "type": "Feature", "properties": { "Name": "ONE15 Marina Club", "description": "", "HYPERLINK": "frontdesk@one15marina.com", "POSTALCODE": "98497", "KEEPERNAME": "Tay Teng Hock", "TOTALROOMS": "26", "ADDRESS": "11 Cove Drive", "INC_CRC": "19932DA26F51B77E", "FMEL_UPD_D": "20210128110627" }, "geometry": { "type": "Point", "coordinates": [ 103.838344779653994, 1.2465985797506 ] } },
{ "type": "Feature", "properties": { "Name": "Orchard Hotel Singapore", "description": "", "HYPERLINK": "", "POSTALCODE": "238879", "KEEPERNAME": "Lee Richards", "TOTALROOMS": "656", "ADDRESS": "442 Orchard Road", "INC_CRC": "B8CCD00C4F42EF27", "FMEL_UPD_D": "20210128110627" }, "geometry": { "type": "Point", "coordinates": [ 103.828164406059997, 1.30766860889292 ] } },
{ "type": "Feature", "properties": { "Name": "Orchid Hotel", "description": "", "HYPERLINK": "resv@orchidhotel.com.sg", "POSTALCODE": "78867", "KEEPERNAME": "Chng Beng Siong", "TOTALROOMS": "272", "ADDRESS": "1 Tras Link", "INC_CRC": "1FE534AAAEAA2E17", "FMEL_UPD_D": "20210128110627" }, "geometry": { "type": "Point", "coordinates": [ 103.843847231634996, 1.27693674003785 ] } },
{ "type": "Feature", "properties": { "Name": "Oxford Hotel", "description": "", "HYPERLINK": "reservation@oxfordhotel.com.sg", "POSTALCODE": "188549", "KEEPERNAME": "Mohamed Rafi Bin Hasan", "TOTALROOMS": "134", "ADDRESS": "218 Queen Street", "INC_CRC": "A973ACA1E3287E37", "FMEL_UPD_D": "20210128110627" }, "geometry": { "type": "Point", "coordinates": [ 103.851820111254995, 1.29801057337893 ] } },
{ "type": "Feature", "properties": { "Name": "Pan Pacific Serviced Suites Beach Road", "description": "", "HYPERLINK": "", "POSTALCODE": "199592", "KEEPERNAME": "Choong Nyuk Fee", "TOTALROOMS": "180", "ADDRESS": "7500B Beach Road", "INC_CRC": "9E6BED1EEB59E7B4", "FMEL_UPD_D": "20210128110627" }, "geometry": { "type": "Point", "coordinates": [ 103.860232906684004, 1.29943396113579 ] } },
{ "type": "Feature", "properties": { "Name": "Parc Sovereign Hotel", "description": "", "HYPERLINK": "contact@parcsovereign.com", "POSTALCODE": "189970", "KEEPERNAME": "Tan Thuang Wee", "TOTALROOMS": "172", "ADDRESS": "175 Albert Street", "INC_CRC": "63F02AB52A0E0DF3", "FMEL_UPD_D": "20210128110627" }, "geometry": { "type": "Point", "coordinates": [ 103.851186611181006, 1.30359193738081 ] } },
{ "type": "Feature", "properties": { "Name": "Parc Sovereign Hotel - Tyrwhitt", "description": "", "HYPERLINK": "contact@parcsovereign.com", "POSTALCODE": "207569", "KEEPERNAME": "Sun Yi", "TOTALROOMS": "270", "ADDRESS": "165 Tyrwhitt Road", "INC_CRC": "9E4DECE8407A49E7", "FMEL_UPD_D": "20210128110627" }, "geometry": { "type": "Point", "coordinates": [ 103.860633791230995, 1.3123170980015 ] } },
{ "type": "Feature", "properties": { "Name": "Park 22 hotel Little India", "description": "", "HYPERLINK": "ngaungsan@whiteoakinv.com", "POSTALCODE": "219184", "KEEPERNAME": "NG AUNG SAN", "TOTALROOMS": "31", "ADDRESS": "60 KERBAU ROAD", "INC_CRC": "B6DD5FF94A6CB290", "FMEL_UPD_D": "20210128110627" }, "geometry": { "type": "Point", "coordinates": [ 103.850729187175006, 1.30761951351103 ] } },
{ "type": "Feature", "properties": { "Name": "Park Avenue Changi", "description": "", "HYPERLINK": "serenetan@uel.sg", "POSTALCODE": "486015", "KEEPERNAME": "Sun Li Jing @ Ryan Sun", "TOTALROOMS": "251", "ADDRESS": "2 Changi Business Park Avenue 1", "INC_CRC": "ABC57C3E84046AB9", "FMEL_UPD_D": "20210128110627" }, "geometry": { "type": "Point", "coordinates": [ 103.963024016310996, 1.33576405585821 ] } },
{ "type": "Feature", "properties": { "Name": "Park Avenue Rochester", "description": "", "HYPERLINK": "serenetan@uel.sg", "POSTALCODE": "138637", "KEEPERNAME": "Sun Li Jing @ Ryan Sun", "TOTALROOMS": "351", "ADDRESS": "31 Rochester Drive", "INC_CRC": "762D0E2D78AB7F0D", "FMEL_UPD_D": "20210128110627" }, "geometry": { "type": "Point", "coordinates": [ 103.788347378512, 1.30535120421258 ] } },
{ "type": "Feature", "properties": { "Name": "Park Hotel Alexandra", "description": "", "HYPERLINK": "info.phal@parkhotelgroup.com", "POSTALCODE": "159972", "KEEPERNAME": "Ng Sock Heng", "TOTALROOMS": "442", "ADDRESS": "323 Alexandra Road Alexandra Central", "INC_CRC": "54DE4BD65056A933", "FMEL_UPD_D": "20210128110627" }, "geometry": { "type": "Point", "coordinates": [ 103.805370079297006, 1.28757994526013 ] } },
{ "type": "Feature", "properties": { "Name": "Park Hotel Clarke Quay", "description": "", "HYPERLINK": "info.phcq@parkhotelgroup.com", "POSTALCODE": "237983", "KEEPERNAME": "Lim Kang Ling", "TOTALROOMS": "340", "ADDRESS": "1 Unity Street", "INC_CRC": "E2C9B43EDDCF4E36", "FMEL_UPD_D": "20210128110627" }, "geometry": { "type": "Point", "coordinates": [ 103.842327428168005, 1.29154596321777 ] } },
{ "type": "Feature", "properties": { "Name": "PARK HOTEL FARRER PARK", "description": "", "HYPERLINK": "", "POSTALCODE": "217564", "KEEPERNAME": "Yong Guan Chuan", "TOTALROOMS": "300", "ADDRESS": "10 FARRER PARK STATION ROAD FARRER SQUARE", "INC_CRC": "EB1C5A786B4D0016", "FMEL_UPD_D": "20210128110627" }, "geometry": { "type": "Point", "coordinates": [ 103.854748159227995, 1.31198097077815 ] } },
{ "type": "Feature", "properties": { "Name": "Park Regis Singapore", "description": "", "HYPERLINK": "gmprsi@parkregissingapore.com", "POSTALCODE": "58268", "KEEPERNAME": "Lim Soon Hwee", "TOTALROOMS": "202", "ADDRESS": "23 Merchant Road", "INC_CRC": "604959AAFF008FEF", "FMEL_UPD_D": "20210128110627" }, "geometry": { "type": "Point", "coordinates": [ 103.844443322366999, 1.28808355052563 ] } },
{ "type": "Feature", "properties": { "Name": "Park View Hotel", "description": "", "HYPERLINK": "parkview@parkview.com.sg", "POSTALCODE": "189692", "KEEPERNAME": "Lim Min Wee Ernest", "TOTALROOMS": "88", "ADDRESS": "81 Beach Road", "INC_CRC": "150AA2256C64E3CF", "FMEL_UPD_D": "20210128110627" }, "geometry": { "type": "Point", "coordinates": [ 103.856493969016995, 1.29720601629426 ] } },
{ "type": "Feature", "properties": { "Name": "PARKROYAL COLLECTION  Marina Bay, Singapore", "description": "", "HYPERLINK": "", "POSTALCODE": "39594", "KEEPERNAME": "Lim Wen Pin Melvin", "TOTALROOMS": "575", "ADDRESS": "6 RAFFLES BOULEVARD MARINA SQUARE", "INC_CRC": "ADBAF9D2FB98EAF8", "FMEL_UPD_D": "20210128110627" }, "geometry": { "type": "Point", "coordinates": [ 103.857007341008, 1.29145525906521 ] } },
{ "type": "Feature", "properties": { "Name": "PARKROYAL Collection Pickering, Singapore", "description": "", "HYPERLINK": "", "POSTALCODE": "58289", "KEEPERNAME": "TAN HAI YANG GINO", "TOTALROOMS": "367", "ADDRESS": "3 Upper Pickering Street", "INC_CRC": "E9C6C11CC2A0BEA8", "FMEL_UPD_D": "20210128110627" }, "geometry": { "type": "Point", "coordinates": [ 103.846290282213005, 1.28563913664569 ] } },
{ "type": "Feature", "properties": { "Name": "PARKROYAL on Kitchener Road", "description": "", "HYPERLINK": "enquiry@kr.parkroyalhotels.com", "POSTALCODE": "208533", "KEEPERNAME": "CHUNG KUM SENG", "TOTALROOMS": "532", "ADDRESS": "181 Kitchener Road", "INC_CRC": "268232B7F53B2ACD", "FMEL_UPD_D": "20210128110627" }, "geometry": { "type": "Point", "coordinates": [ 103.855657430546998, 1.31053024250151 ] } },
{ "type": "Feature", "properties": { "Name": "Summer View Hotel", "description": "", "HYPERLINK": "sales@summerviewhotel.com.sg", "POSTALCODE": "189642", "KEEPERNAME": "Lim Chin Sen", "TOTALROOMS": "86", "ADDRESS": "173  Bencoolen Street", "INC_CRC": "CD59DA00B214CF3B", "FMEL_UPD_D": "20210128110627" }, "geometry": { "type": "Point", "coordinates": [ 103.852237513996002, 1.30165938361762 ] } },
{ "type": "Feature", "properties": { "Name": "The Outpost Hotel Sentosa", "description": "", "HYPERLINK": "", "POSTALCODE": "99951", "KEEPERNAME": "JIM KHOO WEI KWAN", "TOTALROOMS": "193", "ADDRESS": "10 ARTILLERY AVENUE, # 03-01", "INC_CRC": "3ACCB44270106170", "FMEL_UPD_D": "20210128110627" }, "geometry": { "type": "Point", "coordinates": [ 103.819943383465997, 1.25225951518977 ] } },
{ "type": "Feature", "properties": { "Name": "Kim Tian Hotel (Han)", "description": "", "HYPERLINK": "", "POSTALCODE": "399281", "KEEPERNAME": "Steven Han How Chye", "TOTALROOMS": "48", "ADDRESS": "29 Lorong 4 Geylang", "INC_CRC": "5286CCA6CD77626E", "FMEL_UPD_D": "20210105175726" }, "geometry": { "type": "Point", "coordinates": [ 103.876202869192994, 1.31016069700456 ] } },
{ "type": "Feature", "properties": { "Name": "The Pod", "description": "", "HYPERLINK": "info@thepodcapsulehotel.sg", "POSTALCODE": "199552", "KEEPERNAME": "Steven Lee Ngiap Hui", "TOTALROOMS": "15", "ADDRESS": "289 Beach Road  , # 03-01", "INC_CRC": "4C641C6587C8C398", "FMEL_UPD_D": "20210105175726" }, "geometry": { "type": "Point", "coordinates": [ 103.860546413684006, 1.30105228944496 ] } },
{ "type": "Feature", "properties": { "Name": "Hotel 81 - Rochor", "description": "", "HYPERLINK": "hotel81@hotel81.com.sg", "POSTALCODE": "208785", "KEEPERNAME": "Chu Poh Yong", "TOTALROOMS": "87", "ADDRESS": "5 Jalan Besar", "INC_CRC": "5490849D7416D335", "FMEL_UPD_D": "20210105175726" }, "geometry": { "type": "Point", "coordinates": [ 103.853983386178001, 1.30375424119095 ] } },
{ "type": "Feature", "properties": { "Name": "Value Hotel - Thomson", "description": "", "HYPERLINK": "valuehotel@valuehotel.com.sg", "POSTALCODE": "329901", "KEEPERNAME": "Chu Poh Yong", "TOTALROOMS": "366", "ADDRESS": "592 Balestier Road", "INC_CRC": "A60A2481DE2E2ACB", "FMEL_UPD_D": "20210105175726" }, "geometry": { "type": "Point", "coordinates": [ 103.842719933395998, 1.3269557412414 ] } },
{ "type": "Feature", "properties": { "Name": "Peninsula.Excelsior Hotel", "description": "", "HYPERLINK": "enquiries@ytchotels.com.sg", "POSTALCODE": "179805", "KEEPERNAME": "Wong Liang Tong", "TOTALROOMS": "591", "ADDRESS": "5 Coleman Street", "INC_CRC": "BF8C3F5997C76A8B", "FMEL_UPD_D": "20210128110627" }, "geometry": { "type": "Point", "coordinates": [ 103.849820409421994, 1.29194591965028 ] } },
{ "type": "Feature", "properties": { "Name": "Penta Hotel", "description": "", "HYPERLINK": "booking@pentahotel.com.sg", "POSTALCODE": "219894", "KEEPERNAME": "Lim Hwee Meang Rachel", "TOTALROOMS": "48", "ADDRESS": "33 Birch Road", "INC_CRC": "1CBC78FFEACAD597", "FMEL_UPD_D": "20210128110627" }, "geometry": { "type": "Point", "coordinates": [ 103.853597393504998, 1.31119377982074 ] } },
{ "type": "Feature", "properties": { "Name": "Perak Hotel", "description": "", "HYPERLINK": "perlodge@singnet.com.sg", "POSTALCODE": "208133", "KEEPERNAME": "Tong Kok Chiang", "TOTALROOMS": "32", "ADDRESS": "12 Perak Road", "INC_CRC": "BBB3B691A6BEE9E0", "FMEL_UPD_D": "20210128110627" }, "geometry": { "type": "Point", "coordinates": [ 103.853212740708997, 1.30477735433313 ] } },
{ "type": "Feature", "properties": { "Name": "Pine Hostel @ Lavender", "description": "", "HYPERLINK": "pinehostelsg@gmail.com", "POSTALCODE": "207566", "KEEPERNAME": "TAN KEE CHONG, DERRICK", "TOTALROOMS": "7", "ADDRESS": "153A TYRWHITT ROAD QINAN BUILDING", "INC_CRC": "89CA0A7A79FC29C9", "FMEL_UPD_D": "20210128110627" }, "geometry": { "type": "Point", "coordinates": [ 103.860208871905002, 1.31190914918039 ] } },
{ "type": "Feature", "properties": { "Name": "Populous Hotel", "description": "", "HYPERLINK": "info@populoushotel.com", "POSTALCODE": "188933", "KEEPERNAME": "Silvi", "TOTALROOMS": "80", "ADDRESS": "23 MIDDLE ROAD", "INC_CRC": "C90C0045451F7566", "FMEL_UPD_D": "20210128110627" }, "geometry": { "type": "Point", "coordinates": [ 103.855722993908998, 1.29678178848365 ] } },
{ "type": "Feature", "properties": { "Name": "Porcelain Hotel", "description": "", "HYPERLINK": "enquiry@porcelainhotel.com", "POSTALCODE": "59526", "KEEPERNAME": "Hu Yingna", "TOTALROOMS": "138", "ADDRESS": "48 Mosque Street", "INC_CRC": "6007287F12F8B23D", "FMEL_UPD_D": "20210128110627" }, "geometry": { "type": "Point", "coordinates": [ 103.844285506042993, 1.28423977707313 ] } },
{ "type": "Feature", "properties": { "Name": "Q Loft Hotel1929@Chinatown", "description": "", "HYPERLINK": "mgtqloft@gmail.com", "POSTALCODE": "89154", "KEEPERNAME": "TAN TIAN MEI", "TOTALROOMS": "33", "ADDRESS": "50 KEONG SAIK ROAD HOTEL 1929", "INC_CRC": "E4F5799EB5AA7985", "FMEL_UPD_D": "20210128110627" }, "geometry": { "type": "Point", "coordinates": [ 103.841812331317001, 1.28079216116778 ] } },
{ "type": "Feature", "properties": { "Name": "Quality Hotel Marlow", "description": "", "HYPERLINK": "dm@qualityhotelmarlow.com.sg", "POSTALCODE": "329926", "KEEPERNAME": "ONG CHIEW SENG KELLVIN", "TOTALROOMS": "240", "ADDRESS": "201 Balestier Road", "INC_CRC": "024A3E93AA27A3C7", "FMEL_UPD_D": "20210128110627" }, "geometry": { "type": "Point", "coordinates": [ 103.852519737986995, 1.3200518654597 ] } },
{ "type": "Feature", "properties": { "Name": "RedDoorz Premium @ Balestier", "description": "", "HYPERLINK": "", "POSTALCODE": "329795", "KEEPERNAME": "Amit Saberwal", "TOTALROOMS": "46", "ADDRESS": "387 BALESTIER ROAD", "INC_CRC": "96A6381EC4EA7B79", "FMEL_UPD_D": "20210128110627" }, "geometry": { "type": "Point", "coordinates": [ 103.849916615644005, 1.32522597394005 ] } },
{ "type": "Feature", "properties": { "Name": "RedDoorz Premium @ Serangoon", "description": "", "HYPERLINK": "", "POSTALCODE": "207309", "KEEPERNAME": "Amit Saberwal", "TOTALROOMS": "24", "ADDRESS": "3 VEERASAMY ROAD", "INC_CRC": "9575796FE036FF01", "FMEL_UPD_D": "20210128110627" }, "geometry": { "type": "Point", "coordinates": [ 103.853089993362005, 1.30782184572235 ] } },
{ "type": "Feature", "properties": { "Name": "RELC International Hotel", "description": "", "HYPERLINK": "", "POSTALCODE": "258352", "KEEPERNAME": "FRANCIS CHOO KOH ENG", "TOTALROOMS": "151", "ADDRESS": "30 ORANGE GROVE ROAD RELC BUILDING", "INC_CRC": "22877550BD395886", "FMEL_UPD_D": "20210128110627" }, "geometry": { "type": "Point", "coordinates": [ 103.826031941452001, 1.31283861068763 ] } },
{ "type": "Feature", "properties": { "Name": "Rendezvous Hotel Singapore", "description": "", "HYPERLINK": "reseasy@fareast.com.sg", "POSTALCODE": "189559", "KEEPERNAME": "Douglas Fernandez", "TOTALROOMS": "298", "ADDRESS": "9 Bras Basah Road", "INC_CRC": "76A6E9EF9D75EAA7", "FMEL_UPD_D": "20210128110627" }, "geometry": { "type": "Point", "coordinates": [ 103.849316109184997, 1.29858303536992 ] } },
{ "type": "Feature", "properties": { "Name": "Rest Bugis Hotel", "description": "", "HYPERLINK": "", "POSTALCODE": "199207", "KEEPERNAME": "Adrian Siow Shen Ngin", "TOTALROOMS": "74", "ADDRESS": "8 JALAN KUBOR SANTA GRAND HOTEL BUGIS", "INC_CRC": "F7A9ECA7E9C5B114", "FMEL_UPD_D": "20210128110627" }, "geometry": { "type": "Point", "coordinates": [ 103.859429082822999, 1.30405334691991 ] } },
{ "type": "Feature", "properties": { "Name": "River City Inn", "description": "", "HYPERLINK": "rivercityinn.sg@gmail.com", "POSTALCODE": "59672", "KEEPERNAME": "Loke Weng Yian", "TOTALROOMS": "4", "ADDRESS": "33C Hongkong Street", "INC_CRC": "507C99092AECCB4C", "FMEL_UPD_D": "20210128110627" }, "geometry": { "type": "Point", "coordinates": [ 103.847112672324997, 1.28741331170278 ] } },
{ "type": "Feature", "properties": { "Name": "RM Hotel", "description": "", "HYPERLINK": "recept@rafflesmarina.com.sg", "POSTALCODE": "638404", "KEEPERNAME": "Parry Raymond John", "TOTALROOMS": "19", "ADDRESS": "10 Tuas West Drive", "INC_CRC": "E4AF163C69E28926", "FMEL_UPD_D": "20210128110627" }, "geometry": { "type": "Point", "coordinates": [ 103.635089828003998, 1.34158800024817 ] } },
{ "type": "Feature", "properties": { "Name": "Robertson Quay Hotel", "description": "", "HYPERLINK": "accounts@robertsonquayhotel.com.sg", "POSTALCODE": "239032", "KEEPERNAME": "Ng Swee Huat", "TOTALROOMS": "148", "ADDRESS": "15 Merbau Road", "INC_CRC": "790DB71B2EA818E3", "FMEL_UPD_D": "20210128110627" }, "geometry": { "type": "Point", "coordinates": [ 103.841985961153995, 1.29116819945429 ] } },
{ "type": "Feature", "properties": { "Name": "Royal Plaza", "description": "", "HYPERLINK": "royal@royalplaza.com.sg", "POSTALCODE": "228220", "KEEPERNAME": "Patrick Fiat", "TOTALROOMS": "511", "ADDRESS": "25 Scotts Road", "INC_CRC": "05B26C8FAD051389", "FMEL_UPD_D": "20210128110627" }, "geometry": { "type": "Point", "coordinates": [ 103.831445769819993, 1.30708931817226 ] } },
{ "type": "Feature", "properties": { "Name": "Rucksack Inn 2 @Lavender", "description": "", "HYPERLINK": "", "POSTALCODE": "338800", "KEEPERNAME": "Jacquelyn Chan", "TOTALROOMS": "12", "ADDRESS": "280A Lavender Street", "INC_CRC": "6CD4132291F762C3", "FMEL_UPD_D": "20210128110627" }, "geometry": { "type": "Point", "coordinates": [ 103.860315945965993, 1.31436249656989 ] } },
{ "type": "Feature", "properties": { "Name": "Rucksack Inn@Lavender", "description": "", "HYPERLINK": "lavender@rucksackinn.com", "POSTALCODE": "338800", "KEEPERNAME": "Jacquelyn Chan", "TOTALROOMS": "7", "ADDRESS": "280  Lavender Street", "INC_CRC": "6CD41322DCC5E724", "FMEL_UPD_D": "20210128110627" }, "geometry": { "type": "Point", "coordinates": [ 103.860315945965993, 1.31436249656989 ] } },
{ "type": "Feature", "properties": { "Name": "S Inn Chinatown", "description": "", "HYPERLINK": "ct@s-inn.co", "POSTALCODE": "58597", "KEEPERNAME": "Li Xiaojia", "TOTALROOMS": "13", "ADDRESS": "52 Temple Street", "INC_CRC": "C3B347304CF704CC", "FMEL_UPD_D": "20210128110627" }, "geometry": { "type": "Point", "coordinates": [ 103.843595200289997, 1.28330904377112 ] } },
{ "type": "Feature", "properties": { "Name": "S Inn Clarke Quay", "description": "", "HYPERLINK": "cq@s-inn.co", "POSTALCODE": "59677", "KEEPERNAME": "LI XIAOJIA", "TOTALROOMS": "11", "ADDRESS": "38A Hongkong Street", "INC_CRC": "F9167CB6F06F8117", "FMEL_UPD_D": "20210128110627" }, "geometry": { "type": "Point", "coordinates": [ 103.847321862854002, 1.28732233868587 ] } },
{ "type": "Feature", "properties": { "Name": "Sandpiper Hotel", "description": "", "HYPERLINK": "reservations@sandpiperhotels.com", "POSTALCODE": "209391", "KEEPERNAME": "Pankaj Pandit", "TOTALROOMS": "31", "ADDRESS": "63 Dunlop Street", "INC_CRC": "21836099F65FD737", "FMEL_UPD_D": "20210128110627" }, "geometry": { "type": "Point", "coordinates": [ 103.853595766241995, 1.30480931241135 ] } },
{ "type": "Feature", "properties": { "Name": "Santa Grand Hotel East Coast", "description": "", "HYPERLINK": "reservations@santagrand.stayariva.com", "POSTALCODE": "428877", "KEEPERNAME": "Siah Siew Geok", "TOTALROOMS": "73", "ADDRESS": "171 East Coast Road", "INC_CRC": "11B3D1D294E34E55", "FMEL_UPD_D": "20210128110627" }, "geometry": { "type": "Point", "coordinates": [ 103.905795541013006, 1.30672319863699 ] } },
{ "type": "Feature", "properties": { "Name": "Seng Wah Hotel", "description": "", "HYPERLINK": "sengwahhotel@hotmail.com", "POSTALCODE": "398673", "KEEPERNAME": "Han Siew Ying", "TOTALROOMS": "16", "ADDRESS": "15 Lorong 22 Geylang", "INC_CRC": "54E34679A8F2E0C5", "FMEL_UPD_D": "20210128110627" }, "geometry": { "type": "Point", "coordinates": [ 103.882411818147006, 1.31231758276067 ] } },
{ "type": "Feature", "properties": { "Name": "Shangri-La Hotel", "description": "", "HYPERLINK": "sls@shangri-la.com", "POSTALCODE": "258350", "KEEPERNAME": "Kuok Oon Kwong", "TOTALROOMS": "792", "ADDRESS": "22 Orange Grove Road", "INC_CRC": "468EE28FE511CD7C", "FMEL_UPD_D": "20210128110627" }, "geometry": { "type": "Point", "coordinates": [ 103.826756760617002, 1.31124740290095 ] } },
{ "type": "Feature", "properties": { "Name": "Shangri-La's Rasa Sentosa Resort & Spa, Singapore", "description": "", "HYPERLINK": "sen@shangri-la.com", "POSTALCODE": "98970", "KEEPERNAME": "Kuok Oon Kwong", "TOTALROOMS": "454", "ADDRESS": "101 Siloso Road Sentosa", "INC_CRC": "BB45D010408A18CB", "FMEL_UPD_D": "20210128110627" }, "geometry": { "type": "Point", "coordinates": [ 103.809797894322003, 1.25780205516677 ] } },
{ "type": "Feature", "properties": { "Name": "Sheraton Towers Singapore Hotel", "description": "", "HYPERLINK": "sheraton.towers.singapore@sheraton.com", "POSTALCODE": "228230", "KEEPERNAME": "Long Sie Fong", "TOTALROOMS": "420", "ADDRESS": "39 Scotts Road", "INC_CRC": "F8CB983B3D469C43", "FMEL_UPD_D": "20210128110627" }, "geometry": { "type": "Point", "coordinates": [ 103.836462155527997, 1.31195052968093 ] } },
{ "type": "Feature", "properties": { "Name": "Siloso Beach Resort", "description": "", "HYPERLINK": "accounts@silosobeachresort.com", "POSTALCODE": "99538", "KEEPERNAME": "NG YU TECK", "TOTALROOMS": "195", "ADDRESS": "51 Imbiah Walk", "INC_CRC": "6ABC046B9B47E41E", "FMEL_UPD_D": "20210128110627" }, "geometry": { "type": "Point", "coordinates": [ 103.814500414012997, 1.25498728174306 ] } },
{ "type": "Feature", "properties": { "Name": "Sing Hoe Hotel", "description": "", "HYPERLINK": "", "POSTALCODE": "437761", "KEEPERNAME": "ong kum fatt", "TOTALROOMS": "41", "ADDRESS": "759 Mountbatten Road", "INC_CRC": "98570114497D82A1", "FMEL_UPD_D": "20210128110627" }, "geometry": { "type": "Point", "coordinates": [ 103.891452441640993, 1.30076129162384 ] } },
{ "type": "Feature", "properties": { "Name": "Singapore Marriott Tang Plaza Hotel", "description": "", "HYPERLINK": "", "POSTALCODE": "238865", "KEEPERNAME": "Alvin Lim Yue Ping (Lin Youbin)", "TOTALROOMS": "403", "ADDRESS": "320 Orchard Road", "INC_CRC": "44DC3BCF439057DC", "FMEL_UPD_D": "20210128110627" }, "geometry": { "type": "Point", "coordinates": [ 103.832874081575, 1.3050223054635 ] } },
{ "type": "Feature", "properties": { "Name": "Singapore OSS Backpackers Hostel Pte Ltd", "description": "", "HYPERLINK": "sossbackpackers@gmail.com", "POSTALCODE": "209180", "KEEPERNAME": "RAJENDRA PRASAD S\/O N N SRINIVASA NAIDU", "TOTALROOMS": "9", "ADDRESS": "9 HAMILTON ROAD, # 01-01", "INC_CRC": "0282C860E0028697", "FMEL_UPD_D": "20210128110627" }, "geometry": { "type": "Point", "coordinates": [ 103.860729254991, 1.31141627021243 ] } },
{ "type": "Feature", "properties": { "Name": "SO Sofitel Singapore", "description": "", "HYPERLINK": "H8655@sofitel.com", "POSTALCODE": "68876", "KEEPERNAME": "Mazen Abil Mona", "TOTALROOMS": "134", "ADDRESS": "35 Robinson Road", "INC_CRC": "D76D599B9B392E63", "FMEL_UPD_D": "20210128110627" }, "geometry": { "type": "Point", "coordinates": [ 103.849654800023004, 1.27992196206236 ] } },
{ "type": "Feature", "properties": { "Name": "Sofitel Singapore Sentosa Resort & Spa", "description": "", "HYPERLINK": "h9474@sofitel.com", "POSTALCODE": "99891", "KEEPERNAME": "PIOTR JAN KUPIEC", "TOTALROOMS": "215", "ADDRESS": "2 Bukit Manis Road", "INC_CRC": "8ED426B6591D6CD4", "FMEL_UPD_D": "20210128110627" }, "geometry": { "type": "Point", "coordinates": [ 103.827492431991999, 1.24579708620123 ] } },
{ "type": "Feature", "properties": { "Name": "ST Signature Bugis Beach", "description": "", "HYPERLINK": "", "POSTALCODE": "189694", "KEEPERNAME": "Goh Shen Shu, Donovan", "TOTALROOMS": "38", "ADDRESS": "85 BEACH ROAD 85 BEACH GARDEN HOTEL", "INC_CRC": "DB99D87A121B6006", "FMEL_UPD_D": "20210128110627" }, "geometry": { "type": "Point", "coordinates": [ 103.856569786348999, 1.29730337226862 ] } },
{ "type": "Feature", "properties": { "Name": "ST Signature Chinatown", "description": "", "HYPERLINK": "xinfang.ng@straitsorg.com", "POSTALCODE": "58822", "KEEPERNAME": "Xin Fang Ng", "TOTALROOMS": "25", "ADDRESS": "273A SOUTH BRIDGE ROAD", "INC_CRC": "C7D8D66158BDF817", "FMEL_UPD_D": "20210128110627" }, "geometry": { "type": "Point", "coordinates": [ 103.845275724046004, 1.28184250020967 ] } },
{ "type": "Feature", "properties": { "Name": "ST Signature Jalan Besar", "description": "", "HYPERLINK": "", "POSTALCODE": "207372", "KEEPERNAME": "NG XIN FANG", "TOTALROOMS": "69", "ADDRESS": "15 UPPER WELD ROAD BUNC HOSTEL", "INC_CRC": "EA004B2DF47D5A7A", "FMEL_UPD_D": "20210128110627" }, "geometry": { "type": "Point", "coordinates": [ 103.854840702868998, 1.30536577750822 ] } },
{ "type": "Feature", "properties": { "Name": "ST Signature Tanjong Pagar", "description": "", "HYPERLINK": "", "POSTALCODE": "78972", "KEEPERNAME": "SEAH HUI XIAN, JOANNE", "TOTALROOMS": "92", "ADDRESS": "32 TRAS STREET", "INC_CRC": "AA44DCA443FC414B", "FMEL_UPD_D": "20210128110627" }, "geometry": { "type": "Point", "coordinates": [ 103.844250575949999, 1.27865807402423 ] } },
{ "type": "Feature", "properties": { "Name": "St. Regis Hotel Singapore", "description": "", "HYPERLINK": "stregis.singapore@stregis.com", "POSTALCODE": "247911", "KEEPERNAME": "Radu Cernia", "TOTALROOMS": "299", "ADDRESS": "29 Tanglin Road", "INC_CRC": "048B3D5147B2C459", "FMEL_UPD_D": "20210128110627" }, "geometry": { "type": "Point", "coordinates": [ 103.826053513866, 1.30566140857401 ] } },
{ "type": "Feature", "properties": { "Name": "Strand Hotel", "description": "", "HYPERLINK": "reservations@strandhotel.com.sg", "POSTALCODE": "189619", "KEEPERNAME": "Ang Beng Hoh", "TOTALROOMS": "130", "ADDRESS": "25 Bencoolen Street", "INC_CRC": "4CBD6C0C45A2C220", "FMEL_UPD_D": "20210128110627" }, "geometry": { "type": "Point", "coordinates": [ 103.849738602551994, 1.29865275917035 ] } },
{ "type": "Feature", "properties": { "Name": "Studio M Hotel", "description": "", "HYPERLINK": "enquiry.smh@millenniumhotels.com", "POSTALCODE": "238910", "KEEPERNAME": "Othmane Amrani", "TOTALROOMS": "360", "ADDRESS": "3 Nanson Road", "INC_CRC": "F03EF56B7402C41A", "FMEL_UPD_D": "20210128110627" }, "geometry": { "type": "Point", "coordinates": [ 103.839076191393005, 1.29077754111531 ] } },
{ "type": "Feature", "properties": { "Name": "Swissotel Merchant Court,Singapore", "description": "", "HYPERLINK": "singapore-merchantcourt@swissotel.com", "POSTALCODE": "58281", "KEEPERNAME": "Rainer Tenius", "TOTALROOMS": "476", "ADDRESS": "20 Merchant Road", "INC_CRC": "E95540E066605ABF", "FMEL_UPD_D": "20210128110627" }, "geometry": { "type": "Point", "coordinates": [ 103.845692303714003, 1.28821802379382 ] } },
{ "type": "Feature", "properties": { "Name": "Swissotel The Stamford, Singapore", "description": "", "HYPERLINK": "singapore-stamford@swissotel.com", "POSTALCODE": "178882", "KEEPERNAME": "Marcus Moris Hanna", "TOTALROOMS": "1252", "ADDRESS": "2 Stamford Road", "INC_CRC": "274A090AC4E4760E", "FMEL_UPD_D": "20210128110627" }, "geometry": { "type": "Point", "coordinates": [ 103.853365178371007, 1.29326862339764 ] } },
{ "type": "Feature", "properties": { "Name": "Tai Hoe Hotel", "description": "", "HYPERLINK": "gmgthh@gmail.om", "POSTALCODE": "208538", "KEEPERNAME": "Yee Loy Hoe", "TOTALROOMS": "73", "ADDRESS": "163 Kitchener Road", "INC_CRC": "66D062ACD78032C6", "FMEL_UPD_D": "20210128110627" }, "geometry": { "type": "Point", "coordinates": [ 103.856565024277998, 1.31026597160938 ] } },
{ "type": "Feature", "properties": { "Name": "Taipei Hotel (2000)", "description": "", "HYPERLINK": "", "POSTALCODE": "399120", "KEEPERNAME": "Tay Tiong Ying", "TOTALROOMS": "38", "ADDRESS": "60 Lorong 8 Geylang", "INC_CRC": "4BA3F667FAB50100", "FMEL_UPD_D": "20210128110627" }, "geometry": { "type": "Point", "coordinates": [ 103.877081648954999, 1.30992260867721 ] } },
{ "type": "Feature", "properties": { "Name": "The Amazing Inn", "description": "", "HYPERLINK": "sengwahhotel@hotmail.com", "POSTALCODE": "398913", "KEEPERNAME": "Han Siew Ying", "TOTALROOMS": "18", "ADDRESS": "1 Lorong 14 Geylang", "INC_CRC": "88CC31FCB51FF28E", "FMEL_UPD_D": "20210128110627" }, "geometry": { "type": "Point", "coordinates": [ 103.879175568281994, 1.31219356032737 ] } },
{ "type": "Feature", "properties": { "Name": "THE BARRACKS HOTEL SENTOSA", "description": "", "HYPERLINK": "", "POSTALCODE": "99567", "KEEPERNAME": "Jim Khoo Wei Kwan", "TOTALROOMS": "40", "ADDRESS": "2 GUNNER LANE", "INC_CRC": "414D012CC57A8063", "FMEL_UPD_D": "20210128110627" }, "geometry": { "type": "Point", "coordinates": [ 103.820644196531006, 1.25291730866453 ] } },
{ "type": "Feature", "properties": { "Name": "THE CAPITOL KEMPINSKI HOTEL SINGAPORE", "description": "", "HYPERLINK": "", "POSTALCODE": "178906", "KEEPERNAME": "Dawn Tan Woon Woon", "TOTALROOMS": "157", "ADDRESS": "15 STAMFORD ROAD", "INC_CRC": "B25D68ABEEB78850", "FMEL_UPD_D": "20210128110627" }, "geometry": { "type": "Point", "coordinates": [ 103.850710602098999, 1.29416210124998 ] } },
{ "type": "Feature", "properties": { "Name": "The Clan Hotel", "description": "", "HYPERLINK": "", "POSTALCODE": "48417", "KEEPERNAME": "CHRISTINA WENDY LEE", "TOTALROOMS": "324", "ADDRESS": "10 CROSS STREET", "INC_CRC": "67A44488A8BB85B6", "FMEL_UPD_D": "20210128110627" }, "geometry": { "type": "Point", "coordinates": [ 103.848274543911998, 1.28266106573536 ] } },
{ "type": "Feature", "properties": { "Name": "The Daulat", "description": "", "HYPERLINK": "reservation@thedaulat.com", "POSTALCODE": "208413", "KEEPERNAME": "Shaik Mohamed S\/O Mohamed Abdul Jaleel", "TOTALROOMS": "16", "ADDRESS": "16 Madras Street", "INC_CRC": "45265B49626D01D9", "FMEL_UPD_D": "20210128110627" }, "geometry": { "type": "Point", "coordinates": [ 103.852855023694005, 1.30475126170812 ] } },
{ "type": "Feature", "properties": { "Name": "The Elizabeth", "description": "", "HYPERLINK": "info@theelizabeth.com.sg", "POSTALCODE": "228518", "KEEPERNAME": "Mohamed Faharudin Bin Masood", "TOTALROOMS": "256", "ADDRESS": "24 Mount Elizabeth", "INC_CRC": "8285E273B7F99A45", "FMEL_UPD_D": "20210128110627" }, "geometry": { "type": "Point", "coordinates": [ 103.835712305282001, 1.30802411708655 ] } },
{ "type": "Feature", "properties": { "Name": "The Fullerton Bay Hotel", "description": "", "HYPERLINK": "fbh.info@fullertonhotels.com", "POSTALCODE": "49326", "KEEPERNAME": "Giovanni Viterale", "TOTALROOMS": "98", "ADDRESS": "80 Collyer Quay", "INC_CRC": "2745F9F5912EC8B9", "FMEL_UPD_D": "20210128110627" }, "geometry": { "type": "Point", "coordinates": [ 103.853480204099995, 1.28396667042345 ] } },
{ "type": "Feature", "properties": { "Name": "The Fullerton Hotel", "description": "", "HYPERLINK": "tfs.info@fullertonhotels.com", "POSTALCODE": "49178", "KEEPERNAME": "Giovanni Viterale", "TOTALROOMS": "399", "ADDRESS": "1 Fullerton Square", "INC_CRC": "7604490E359CB43E", "FMEL_UPD_D": "20210128110627" }, "geometry": { "type": "Point", "coordinates": [ 103.852970351253006, 1.2861932360653 ] } },
{ "type": "Feature", "properties": { "Name": "THE GREAT MADRAS", "description": "", "HYPERLINK": "zubair@dam.com.sg", "POSTALCODE": "208422", "KEEPERNAME": "SHAIK MOHAMED S\/O MOHAMED ABDUL JALEEL", "TOTALROOMS": "29", "ADDRESS": "28 MADRAS STREET", "INC_CRC": "ACD183F8850757BA", "FMEL_UPD_D": "20210128110627" }, "geometry": { "type": "Point", "coordinates": [ 103.853009974106001, 1.30493595075971 ] } },
{ "type": "Feature", "properties": { "Name": "The Hive Singapore Hostel", "description": "", "HYPERLINK": "", "POSTALCODE": "218223", "KEEPERNAME": "YAN TONGJI", "TOTALROOMS": "13", "ADDRESS": "624 SERANGOON ROAD THE HIVE", "INC_CRC": "915876CC5A5C1A96", "FMEL_UPD_D": "20210128110627" }, "geometry": { "type": "Point", "coordinates": [ 103.858786331917997, 1.31571664407736 ] } },
{ "type": "Feature", "properties": { "Name": "The Inn at Temple Street", "description": "", "HYPERLINK": "rsvn.room@theinn.com.sg", "POSTALCODE": "58581", "KEEPERNAME": "Kho Chuan Thye Patrick", "TOTALROOMS": "42", "ADDRESS": "36 Temple Street", "INC_CRC": "DB87DFC691F6C004", "FMEL_UPD_D": "20210128110627" }, "geometry": { "type": "Point", "coordinates": [ 103.843868478868004, 1.28320660795322 ] } },
{ "type": "Feature", "properties": { "Name": "The Keong Saik Hotel", "description": "", "HYPERLINK": "reservations@keongsaikhotel.com.sg", "POSTALCODE": "89165", "KEEPERNAME": "Tan Koon Jim", "TOTALROOMS": "25", "ADDRESS": "69 Keong Saik Road", "INC_CRC": "C08E9BF66D14C6E6", "FMEL_UPD_D": "20210128110627" }, "geometry": { "type": "Point", "coordinates": [ 103.841640168585997, 1.28103904341286 ] } },
{ "type": "Feature", "properties": { "Name": "The Pan Pacific Hotel Singapore", "description": "", "HYPERLINK": "enquiry.ppsin@panpacific.com", "POSTALCODE": "39595", "KEEPERNAME": "Wehinger Kurt Otto", "TOTALROOMS": "790", "ADDRESS": "7 Raffles Boulevard", "INC_CRC": "1DC444E06A1C3A01", "FMEL_UPD_D": "20210128110627" }, "geometry": { "type": "Point", "coordinates": [ 103.857758269035003, 1.29111728356103 ] } },
{ "type": "Feature", "properties": { "Name": "THE QUAY HOTEL", "description": "", "HYPERLINK": "", "POSTALCODE": "58688", "KEEPERNAME": "Heng Chern Chieh, Germaine", "TOTALROOMS": "41", "ADDRESS": "57 SOUTH BRIDGE ROAD SANTA GRAND HOTEL BOAT QUAY", "INC_CRC": "8F1A6E60C344BF35", "FMEL_UPD_D": "20210128110627" }, "geometry": { "type": "Point", "coordinates": [ 103.848312936217994, 1.2870550760207 ] } },
{ "type": "Feature", "properties": { "Name": "The Quay Hotel Lavender", "description": "", "HYPERLINK": "", "POSTALCODE": "338739", "KEEPERNAME": "Heng Chern Chieh Germaine", "TOTALROOMS": "102", "ADDRESS": "139 LAVENDER STREET AQUEEN HOTEL - LAVENDER", "INC_CRC": "C500B925DFFB1C49", "FMEL_UPD_D": "20210128110627" }, "geometry": { "type": "Point", "coordinates": [ 103.861185772159004, 1.31234470122478 ] } },
{ "type": "Feature", "properties": { "Name": "Kam Leng Hotel", "description": "", "HYPERLINK": "reservations@kamleng.com", "POSTALCODE": "209001", "KEEPERNAME": "Hu Yingna", "TOTALROOMS": "70", "ADDRESS": "383 Jalan Besar", "INC_CRC": "90F5301BD31E81DD", "FMEL_UPD_D": "20210128110627" }, "geometry": { "type": "Point", "coordinates": [ 103.859699504459002, 1.31322431873699 ] } },
{ "type": "Feature", "properties": { "Name": "KeSa House", "description": "", "HYPERLINK": "", "POSTALCODE": "89158", "KEEPERNAME": "Manchharam Ashish", "TOTALROOMS": "60", "ADDRESS": "55 KEONG SAIK ROAD, # 01-02", "INC_CRC": "FD57F84B8A87C940", "FMEL_UPD_D": "20210128110627" }, "geometry": { "type": "Point", "coordinates": [ 103.841542357757007, 1.28061922396397 ] } },
{ "type": "Feature", "properties": { "Name": "Kim Tian (Star) Hotel", "description": "", "HYPERLINK": "", "POSTALCODE": "399166", "KEEPERNAME": "Steven Han How Chye", "TOTALROOMS": "43", "ADDRESS": "4 Lorong 6 Geylang", "INC_CRC": "108A3FBC4F850C72", "FMEL_UPD_D": "20210128110627" }, "geometry": { "type": "Point", "coordinates": [ 103.876240340590996, 1.31143553463831 ] } },
{ "type": "Feature", "properties": { "Name": "La Mode (Sophia)", "description": "", "HYPERLINK": "", "POSTALCODE": "399050", "KEEPERNAME": "Teng Ai Fong", "TOTALROOMS": "35", "ADDRESS": "17 Lorong 10 Geylang", "INC_CRC": "DAC543AEA585EF1C", "FMEL_UPD_D": "20210128110627" }, "geometry": { "type": "Point", "coordinates": [ 103.877802903174, 1.3112646112522 ] } },
{ "type": "Feature", "properties": { "Name": "Lai Ming Hotel", "description": "", "HYPERLINK": "otl@laiming.com.sg", "POSTALCODE": "389396", "KEEPERNAME": "Ong Tong Liang", "TOTALROOMS": "15", "ADDRESS": "432  Geylang Road", "INC_CRC": "D8439240641E1543", "FMEL_UPD_D": "20210128110627" }, "geometry": { "type": "Point", "coordinates": [ 103.883130632629005, 1.31301909204336 ] } },
{ "type": "Feature", "properties": { "Name": "Lai Ming Hotel Cosmoland", "description": "", "HYPERLINK": "otl@laiminghotel.com.sg", "POSTALCODE": "389395", "KEEPERNAME": "Ong Tong Liang", "TOTALROOMS": "54", "ADDRESS": "424 Geylang Road", "INC_CRC": "65C3A99FF5F30E2F", "FMEL_UPD_D": "20210128110627" }, "geometry": { "type": "Point", "coordinates": [ 103.882877756010004, 1.31285242907657 ] } },
{ "type": "Feature", "properties": { "Name": "LEX HOTEL (LORONG 8)", "description": "", "HYPERLINK": "", "POSTALCODE": "399073", "KEEPERNAME": "PANG CHIN FATT", "TOTALROOMS": "41", "ADDRESS": "1 LORONG 8 GEYLANG", "INC_CRC": "AE0C6660884D2FC4", "FMEL_UPD_D": "20210128110627" }, "geometry": { "type": "Point", "coordinates": [ 103.877164397643995, 1.31181053676029 ] } },
{ "type": "Feature", "properties": { "Name": "Link Hotel", "description": "", "HYPERLINK": "info@linkhotel.com.sg", "POSTALCODE": "168733", "KEEPERNAME": "Dong Hankun", "TOTALROOMS": "274", "ADDRESS": "50 Tiong Bahru Road", "INC_CRC": "DB8D4F17741BF058", "FMEL_UPD_D": "20210128110627" }, "geometry": { "type": "Point", "coordinates": [ 103.834290657294005, 1.28487238567456 ] } },
{ "type": "Feature", "properties": { "Name": "Lloyd's Inn", "description": "", "HYPERLINK": "mail@lloydsinn.com", "POSTALCODE": "239091", "KEEPERNAME": "CHANG YI WEN, JOAN", "TOTALROOMS": "34", "ADDRESS": "2 Lloyd Road", "INC_CRC": "2C4F2C1B0F9C696C", "FMEL_UPD_D": "20210128110627" }, "geometry": { "type": "Point", "coordinates": [ 103.840365853894994, 1.29726358007834 ] } },
{ "type": "Feature", "properties": { "Name": "Lodge 41", "description": "", "HYPERLINK": "", "POSTALCODE": "398877", "KEEPERNAME": "Yong Chung Yung", "TOTALROOMS": "22", "ADDRESS": "41 Lorong 16 Geylang", "INC_CRC": "C7F5DB12BA986119", "FMEL_UPD_D": "20210128110627" }, "geometry": { "type": "Point", "coordinates": [ 103.880201803936998, 1.31152237256803 ] } },
{ "type": "Feature", "properties": { "Name": "lyf Funan Singapore", "description": "", "HYPERLINK": "", "POSTALCODE": "179370", "KEEPERNAME": "Cross Norman Francis", "TOTALROOMS": "329", "ADDRESS": "67 HILL STREET", "INC_CRC": "7C29A0FEB41A1905", "FMEL_UPD_D": "20210128110627" }, "geometry": { "type": "Point", "coordinates": [ 103.849458626170005, 1.29157596080638 ] } },
{ "type": "Feature", "properties": { "Name": "M Hotel Singapore", "description": "", "HYPERLINK": "enquiry.mhs@millenniumhotels.com", "POSTALCODE": "79908", "KEEPERNAME": "Pjey Mayandi", "TOTALROOMS": "415", "ADDRESS": "81 Anson Road", "INC_CRC": "3FF220A6BE4FCE5B", "FMEL_UPD_D": "20210128110627" }, "geometry": { "type": "Point", "coordinates": [ 103.845060214810005, 1.27368776927434 ] } },
{ "type": "Feature", "properties": { "Name": "M Social Singapore", "description": "", "HYPERLINK": "", "POSTALCODE": "238259", "KEEPERNAME": "Othmane AMRANI", "TOTALROOMS": "293", "ADDRESS": "90 Robertson Quay", "INC_CRC": "72424155F1FBBF08", "FMEL_UPD_D": "20210128110627" }, "geometry": { "type": "Point", "coordinates": [ 103.837220928324996, 1.29086699266622 ] } },
{ "type": "Feature", "properties": { "Name": "Mandarin Orchard Singapore", "description": "", "HYPERLINK": "orchard@meritushotels.com", "POSTALCODE": "238867", "KEEPERNAME": "Danny Wong Hee Ling", "TOTALROOMS": "1077", "ADDRESS": "333 Orchard Road", "INC_CRC": "7FB2435245CD216A", "FMEL_UPD_D": "20210128110627" }, "geometry": { "type": "Point", "coordinates": [ 103.836340959124001, 1.3020645045383 ] } },
{ "type": "Feature", "properties": { "Name": "PARKROYAL on Beach Road, Singapore", "description": "", "HYPERLINK": "enquiry@parkroyalhotels.com", "POSTALCODE": "199591", "KEEPERNAME": "CAMPILLO ANGELITO PAOLO LACSON", "TOTALROOMS": "346", "ADDRESS": "7500A Beach Road The Plaza", "INC_CRC": "4924DB8DA0266F16", "FMEL_UPD_D": "20210105175726" }, "geometry": { "type": "Point", "coordinates": [ 103.860070225371004, 1.29945373680809 ] } },
{ "type": "Feature", "properties": { "Name": "Q Loft Hotels@Bedok", "description": "", "HYPERLINK": "mgtqloft@gmail.com", "POSTALCODE": "469546", "KEEPERNAME": "TAN TIAN MEI", "TOTALROOMS": "12", "ADDRESS": "357A BEDOK ROAD, # 1-", "INC_CRC": "D659C4A4FD803828", "FMEL_UPD_D": "20210105175726" }, "geometry": { "type": "Point", "coordinates": [ 103.947049954570005, 1.33160106900625 ] } },
{ "type": "Feature", "properties": { "Name": "Q Loft Hotels@Mackenzie", "description": "", "HYPERLINK": "", "POSTALCODE": "228677", "KEEPERNAME": "Tan Tian Mei", "TOTALROOMS": "40", "ADDRESS": "15 Mackenzie Road", "INC_CRC": "F4F09F30F0E3544F", "FMEL_UPD_D": "20210105175726" }, "geometry": { "type": "Point", "coordinates": [ 103.849798670544004, 1.30437833815954 ] } },
{ "type": "Feature", "properties": { "Name": "Raffles Hotel Singapore", "description": "", "HYPERLINK": "singapore@raffles.com", "POSTALCODE": "189673", "KEEPERNAME": "Christian Westbeld", "TOTALROOMS": "115", "ADDRESS": "1 Beach Road", "INC_CRC": "8788A5F4CB8744EF", "FMEL_UPD_D": "20210105175726" }, "geometry": { "type": "Point", "coordinates": [ 103.854068347720997, 1.29509740338278 ] } },
{ "type": "Feature", "properties": { "Name": "Ramada Singapore at Zhongshan Park", "description": "", "HYPERLINK": "info@ramadasingapore.com", "POSTALCODE": "329983", "KEEPERNAME": "Tony John Cousens", "TOTALROOMS": "382", "ADDRESS": "16 Ah Hood Road", "INC_CRC": "19755CEBC868778A", "FMEL_UPD_D": "20210105175726" }, "geometry": { "type": "Point", "coordinates": [ 103.846374260603, 1.32710813170856 ] } },
{ "type": "Feature", "properties": { "Name": "Reddoorz @ Aljunied", "description": "", "HYPERLINK": "", "POSTALCODE": "398691", "KEEPERNAME": "AMIT SABERWAL", "TOTALROOMS": "42", "ADDRESS": "34 LORONG 22 GEYLANG LEMON GRASS HOTEL", "INC_CRC": "003525F687D38DDA", "FMEL_UPD_D": "20210105175726" }, "geometry": { "type": "Point", "coordinates": [ 103.881861947743005, 1.31116645434913 ] } },
{ "type": "Feature", "properties": { "Name": "RedDoorz near Marine Parade Central", "description": "", "HYPERLINK": "", "POSTALCODE": "428996", "KEEPERNAME": "AMIT SABERWAL", "TOTALROOMS": "62", "ADDRESS": "400 EAST COAST ROAD GARDEN TERRACE HOTEL", "INC_CRC": "4DB366809E651AA1", "FMEL_UPD_D": "20210105175726" }, "geometry": { "type": "Point", "coordinates": [ 103.912040454704993, 1.30869695647047 ] } },
{ "type": "Feature", "properties": { "Name": "The Noble Hotel", "description": "", "HYPERLINK": "", "POSTALCODE": "209012", "KEEPERNAME": "Tay Hongwei Alinilson", "TOTALROOMS": "30", "ADDRESS": "407 JALAN BESAR THE NOBLE HOTEL", "INC_CRC": "121557C245EE5600", "FMEL_UPD_D": "20210105175726" }, "geometry": { "type": "Point", "coordinates": [ 103.859775934816994, 1.31379680423506 ] } },
{ "type": "Feature", "properties": { "Name": "Snooze Inn @ Dunlop Street", "description": "", "HYPERLINK": "", "POSTALCODE": "209356", "KEEPERNAME": "Tsai Shi Shyuan", "TOTALROOMS": "15", "ADDRESS": "28 DUNLOP STREET KAWAN HOSTEL", "INC_CRC": "0E17FCCF246EDBE6", "FMEL_UPD_D": "20210105175726" }, "geometry": { "type": "Point", "coordinates": [ 103.854022759534004, 1.30473915824794 ] } },
{ "type": "Feature", "properties": { "Name": "Snooze Inn Pte Ltd", "description": "", "HYPERLINK": "", "POSTALCODE": "209518", "KEEPERNAME": "TSAI SHI SHYUAN", "TOTALROOMS": "23", "ADDRESS": "43 DICKSON ROAD PHIL INN", "INC_CRC": "F0FF75DCB0A99F58", "FMEL_UPD_D": "20210105175726" }, "geometry": { "type": "Point", "coordinates": [ 103.853723617758007, 1.30536816987403 ] } },
{ "type": "Feature", "properties": { "Name": "South East Asia Hotel", "description": "", "HYPERLINK": "seahotel@singnet.com.sg", "POSTALCODE": "187965", "KEEPERNAME": "Huang Wen Hwa", "TOTALROOMS": "51", "ADDRESS": "190 Waterloo Street", "INC_CRC": "79F31324BCC1C495", "FMEL_UPD_D": "20210105175726" }, "geometry": { "type": "Point", "coordinates": [ 103.853135267954002, 1.30108678628959 ] } },
{ "type": "Feature", "properties": { "Name": "Spacepod@Lavender", "description": "", "HYPERLINK": "booking@bpsg.com.sg", "POSTALCODE": "208559", "KEEPERNAME": "Bian Haiqiu", "TOTALROOMS": "8", "ADDRESS": "111J King George's Avenue", "INC_CRC": "F0F5D28062C8D0BD", "FMEL_UPD_D": "20210105175726" }, "geometry": { "type": "Point", "coordinates": [ 103.861714993221, 1.31033177948249 ] } },
{ "type": "Feature", "properties": { "Name": "Hotel 81 - Orchid", "description": "", "HYPERLINK": "hotel81@hotel81.com.sg", "POSTALCODE": "399090", "KEEPERNAME": "Chu Poh Yong", "TOTALROOMS": "182", "ADDRESS": "21 Lorong 8 Geylang", "INC_CRC": "2D61777F80DEAC1D", "FMEL_UPD_D": "20210105175726" }, "geometry": { "type": "Point", "coordinates": [ 103.877277745979001, 1.31119116358172 ] } },
{ "type": "Feature", "properties": { "Name": "Hotel 81 - Osaka", "description": "", "HYPERLINK": "hotel81@hotel81.com.sg", "POSTALCODE": "169753", "KEEPERNAME": "Chu Poh Yong", "TOTALROOMS": "74", "ADDRESS": "1 Eng Hoon Street", "INC_CRC": "44F052ED4506294E", "FMEL_UPD_D": "20210105175726" }, "geometry": { "type": "Point", "coordinates": [ 103.834966686155994, 1.28336484066759 ] } },
{ "type": "Feature", "properties": { "Name": "Hotel 81 - Palace", "description": "", "HYPERLINK": "hotel81@hotel81.com.sg", "POSTALCODE": "398867", "KEEPERNAME": "Chu Poh Yong", "TOTALROOMS": "192", "ADDRESS": "25 Lorong 16 Geylang", "INC_CRC": "6FD6C20143A9880D", "FMEL_UPD_D": "20210105175726" }, "geometry": { "type": "Point", "coordinates": [ 103.880119073255003, 1.31179140354756 ] } },
{ "type": "Feature", "properties": { "Name": "Hotel 81 - Princess", "description": "", "HYPERLINK": "hotel81@hotel81.com.sg", "POSTALCODE": "399001", "KEEPERNAME": "Chu Poh Yong", "TOTALROOMS": "133", "ADDRESS": "21 Lorong 12 Geylang", "INC_CRC": "914BC2568D8E2EE1", "FMEL_UPD_D": "20210105175726" }, "geometry": { "type": "Point", "coordinates": [ 103.878632309021, 1.31098893424992 ] } },
{ "type": "Feature", "properties": { "Name": "Hotel 81 - Sakura", "description": "", "HYPERLINK": "hotel81@hotel81.com.sg", "POSTALCODE": "427452", "KEEPERNAME": "Chu Poh Yong", "TOTALROOMS": "75", "ADDRESS": "181 Joo Chiat Road", "INC_CRC": "6C8B59EEC7DC4C3C", "FMEL_UPD_D": "20210105175726" }, "geometry": { "type": "Point", "coordinates": [ 103.900510985539, 1.31229179932804 ] } },
{ "type": "Feature", "properties": { "Name": "Hotel 81 - Selegie", "description": "", "HYPERLINK": "hotel81@hotel81.com.sg", "POSTALCODE": "188318", "KEEPERNAME": "Chu Poh Yong", "TOTALROOMS": "81", "ADDRESS": "161 Selegie Road", "INC_CRC": "F2B7F837998E434F", "FMEL_UPD_D": "20210105175726" }, "geometry": { "type": "Point", "coordinates": [ 103.849884117870999, 1.3032844053482 ] } },
{ "type": "Feature", "properties": { "Name": "Hotel 81 - Spring", "description": "", "HYPERLINK": "hotel81@hotel81.com.sg", "POSTALCODE": "388619", "KEEPERNAME": "Chu Poh Yong", "TOTALROOMS": "32", "ADDRESS": "22 Lorong 15 Geylang", "INC_CRC": "F97BF4D688D2B64F", "FMEL_UPD_D": "20210105175726" }, "geometry": { "type": "Point", "coordinates": [ 103.878270058693005, 1.31368275668813 ] } },
{ "type": "Feature", "properties": { "Name": "Hotel 81 - Star", "description": "", "HYPERLINK": "hotel81@hotel81.com.sg", "POSTALCODE": "398828", "KEEPERNAME": "Chu Poh Yong", "TOTALROOMS": "207", "ADDRESS": "31 Lorong 18 Geylang", "INC_CRC": "A904805F1B766828", "FMEL_UPD_D": "20210105175726" }, "geometry": { "type": "Point", "coordinates": [ 103.880860523550993, 1.31160600473177 ] } },
{ "type": "Feature", "properties": { "Name": "Hotel 81 - Tristar", "description": "", "HYPERLINK": "hotel81@hotel81.com.sg", "POSTALCODE": "424780", "KEEPERNAME": "Chu Poh Yong", "TOTALROOMS": "116", "ADDRESS": "1 Onan Road", "INC_CRC": "64E0BD023BAB5C2C", "FMEL_UPD_D": "20210105175726" }, "geometry": { "type": "Point", "coordinates": [ 103.897420527924993, 1.31568836964855 ] } },
{ "type": "Feature", "properties": { "Name": "Hotel 81 - Violet", "description": "", "HYPERLINK": "hotel81@hotel81.com.sg", "POSTALCODE": "338722", "KEEPERNAME": "Chu Poh Yong", "TOTALROOMS": "49", "ADDRESS": "97 Lavender Street", "INC_CRC": "14CB66640F998417", "FMEL_UPD_D": "20210105175726" }, "geometry": { "type": "Point", "coordinates": [ 103.862164062966997, 1.31106785024407 ] } },
{ "type": "Feature", "properties": { "Name": "Value Hotel - Balestier", "description": "", "HYPERLINK": "valuehotel@valuehotel.com.sg", "POSTALCODE": "329684", "KEEPERNAME": "Chu Poh Yong", "TOTALROOMS": "208", "ADDRESS": "218 Balestier Road", "INC_CRC": "EC3E7E349FA619EE", "FMEL_UPD_D": "20210105175726" }, "geometry": { "type": "Point", "coordinates": [ 103.853270441012995, 1.32124006979661 ] } },
{ "type": "Feature", "properties": { "Name": "Value Hotel - Nice", "description": "", "HYPERLINK": "valuehotel@valuehotel.com.sg", "POSTALCODE": "329738", "KEEPERNAME": "Chu Poh Yong", "TOTALROOMS": "63", "ADDRESS": "302 Balestier Road", "INC_CRC": "31D11432E3C9F122", "FMEL_UPD_D": "20210105175726" }, "geometry": { "type": "Point", "coordinates": [ 103.852504389911005, 1.32334493742066 ] } },
{ "type": "Feature", "properties": { "Name": "Hotel 81 - Geylang", "description": "", "HYPERLINK": "hotel81@hotel81.com.sg", "POSTALCODE": "398863", "KEEPERNAME": "Chu Poh Yong", "TOTALROOMS": "88", "ADDRESS": "20 Lorong 16 Geylang", "INC_CRC": "C0A53C0A43885765", "FMEL_UPD_D": "20210128110627" }, "geometry": { "type": "Point", "coordinates": [ 103.879565363056997, 1.31178580684439 ] } },
{ "type": "Feature", "properties": { "Name": "Coziee Lodge", "description": "", "HYPERLINK": "denniskyj@gmail.com", "POSTALCODE": "389198", "KEEPERNAME": "Kwek Yi Jun, Dennis", "TOTALROOMS": "5", "ADDRESS": "77A Geylang Road", "INC_CRC": "2120FA2DB22770F6", "FMEL_UPD_D": "20210128110627" }, "geometry": { "type": "Point", "coordinates": [ 103.872875886599999, 1.31077389402222 ] } },
{ "type": "Feature", "properties": { "Name": "Festive Hotel", "description": "", "HYPERLINK": "enquiries@rwsentosa.com", "POSTALCODE": "98271", "KEEPERNAME": "Johansson Jan Fredrik", "TOTALROOMS": "447", "ADDRESS": "12 Sentosa Gateway", "INC_CRC": "D61B8AEC3840A9A3", "FMEL_UPD_D": "20210128110627" }, "geometry": { "type": "Point", "coordinates": [ 103.819026715795005, 1.25602110299293 ] } },
{ "type": "Feature", "properties": { "Name": "Fragrance Hotel - Classic", "description": "", "HYPERLINK": "contact@fragrancehotel.com", "POSTALCODE": "329808", "KEEPERNAME": "SUN YI", "TOTALROOMS": "48", "ADDRESS": "418 Balestier Road", "INC_CRC": "786F2851FED95010", "FMEL_UPD_D": "20210128110627" }, "geometry": { "type": "Point", "coordinates": [ 103.849620250658006, 1.32586501711441 ] } },
{ "type": "Feature", "properties": { "Name": "Furama Riverfront Singapore", "description": "", "HYPERLINK": "furama.riverfront@furama.com", "POSTALCODE": "169633", "KEEPERNAME": "Ng Wei Yeow", "TOTALROOMS": "615", "ADDRESS": "405 Havelock Road", "INC_CRC": "32401663556849F5", "FMEL_UPD_D": "20210128110627" }, "geometry": { "type": "Point", "coordinates": [ 103.836092838867003, 1.28763453813819 ] } },
{ "type": "Feature", "properties": { "Name": "Haising Hotel", "description": "", "HYPERLINK": "hs@haising.com.sg", "POSTALCODE": "208801", "KEEPERNAME": "Tan Boon Yong Dominic", "TOTALROOMS": "56", "ADDRESS": "33A Jalan Besar", "INC_CRC": "4EDEA087007B5886", "FMEL_UPD_D": "20210128110627" }, "geometry": { "type": "Point", "coordinates": [ 103.854580698492001, 1.30462079031568 ] } },
{ "type": "Feature", "properties": { "Name": "Aliwal Park Hotel", "description": "", "HYPERLINK": "aliwalpark77@gmail.com", "POSTALCODE": "199948", "KEEPERNAME": "Wong Lee Peng", "TOTALROOMS": "53", "ADDRESS": "77 Aliwal Street", "INC_CRC": "338C31C6EB6057EA", "FMEL_UPD_D": "20210128110627" }, "geometry": { "type": "Point", "coordinates": [ 103.860268091316001, 1.30336025012185 ] } },
{ "type": "Feature", "properties": { "Name": "Aqueen Heritage Hotel - Joo Chiat", "description": "", "HYPERLINK": "", "POSTALCODE": "427373", "KEEPERNAME": "Chan Boon Tat", "TOTALROOMS": "70", "ADDRESS": "51 Joo Chiat Road", "INC_CRC": "479DDB1B2064D8F8", "FMEL_UPD_D": "20210128110627" }, "geometry": { "type": "Point", "coordinates": [ 103.898608720200002, 1.31496412930389 ] } },
{ "type": "Feature", "properties": { "Name": "Asia Star Hotel", "description": "", "HYPERLINK": "johnnyangys@hotmail.com", "POSTALCODE": "207995", "KEEPERNAME": "Ang Ying Soon", "TOTALROOMS": "14", "ADDRESS": "44 Rowell Road", "INC_CRC": "02A170199B52C836", "FMEL_UPD_D": "20210128110627" }, "geometry": { "type": "Point", "coordinates": [ 103.854724878875999, 1.30850392397464 ] } },
{ "type": "Feature", "properties": { "Name": "Capri By Fraser China Square, Singapore", "description": "", "HYPERLINK": "reservations.singapore@capribyfraser.com", "POSTALCODE": "58743", "KEEPERNAME": "Vernon Lee Koon Yong", "TOTALROOMS": "304", "ADDRESS": "181 SOUTH BRIDGE ROAD", "INC_CRC": "A88878CB6DF3EA60", "FMEL_UPD_D": "20210128110627" }, "geometry": { "type": "Point", "coordinates": [ 103.847061684457003, 1.28401467620777 ] } },
{ "type": "Feature", "properties": { "Name": "CherryLoft @Lorong10", "description": "", "HYPERLINK": "acct@cherryloft.com", "POSTALCODE": "399042", "KEEPERNAME": "ONG PUAY GUAN", "TOTALROOMS": "36", "ADDRESS": "9 LORONG 10 GEYLANG HORNBILL HOTEL", "INC_CRC": "1D1079E2E6CC6050", "FMEL_UPD_D": "20210128110627" }, "geometry": { "type": "Point", "coordinates": [ 103.877803629582004, 1.31159165655393 ] } },
{ "type": "Feature", "properties": { "Name": "Heritage Collection on Clarke Quay", "description": "", "HYPERLINK": "", "POSTALCODE": "58670", "KEEPERNAME": "Yap Hui Wen", "TOTALROOMS": "19", "ADDRESS": "36 SOUTH BRIDGE ROAD LAI NGUANG BUILDING", "INC_CRC": "CC6A260394E34633", "FMEL_UPD_D": "20210128110627" }, "geometry": { "type": "Point", "coordinates": [ 103.848499212415007, 1.2880823691838 ] } },
{ "type": "Feature", "properties": { "Name": "Holiday Inn Express Singapore Serangoon", "description": "", "HYPERLINK": "", "POSTALCODE": "209019", "KEEPERNAME": "Garside Ashleigh Maree", "TOTALROOMS": "119", "ADDRESS": "270 JALAN BESAR", "INC_CRC": "F42B9FBA63112392", "FMEL_UPD_D": "20210128110627" }, "geometry": { "type": "Point", "coordinates": [ 103.858630348608003, 1.31014109037569 ] } },
{ "type": "Feature", "properties": { "Name": "Hotel 81 - Balestier", "description": "", "HYPERLINK": "hotel81@hotel81.com.sg", "POSTALCODE": "329688", "KEEPERNAME": "Chu Poh Yong", "TOTALROOMS": "53", "ADDRESS": "226 Balestier Road", "INC_CRC": "30C90C6B5398385C", "FMEL_UPD_D": "20210128110627" }, "geometry": { "type": "Point", "coordinates": [ 103.853123339191001, 1.32138046634844 ] } },
{ "type": "Feature", "properties": { "Name": "The Vagabond Club", "description": "", "HYPERLINK": "accounts@garchahotels.com", "POSTALCODE": "207630", "KEEPERNAME": "Harpreet Kaur Bedi", "TOTALROOMS": "41", "ADDRESS": "39 Syed Alwi Road", "INC_CRC": "CE5B3EE1018C698B", "FMEL_UPD_D": "20210128110627" }, "geometry": { "type": "Point", "coordinates": [ 103.858401651015996, 1.30689059540428 ] } },
{ "type": "Feature", "properties": { "Name": "Venue Hotel", "description": "", "HYPERLINK": "contact@venuehotel.sg", "POSTALCODE": "427556", "KEEPERNAME": "Chu Poh Yong", "TOTALROOMS": "81", "ADDRESS": "305 Joo Chiat Road", "INC_CRC": "131753C344D858D8", "FMEL_UPD_D": "20210128110627" }, "geometry": { "type": "Point", "coordinates": [ 103.902428918271994, 1.30957900907828 ] } },
{ "type": "Feature", "properties": { "Name": "YotelAir Singapore Changi Airport", "description": "", "HYPERLINK": "jca.finance@yotel.com", "POSTALCODE": "819666", "KEEPERNAME": "Nicholas James Cheesman", "TOTALROOMS": "130", "ADDRESS": "78 AIRPORT BOULEVARD, # 04-280", "INC_CRC": "F81397E00B2B73F3", "FMEL_UPD_D": "20210128110627" }, "geometry": { "type": "Point", "coordinates": [ 103.989077555194001, 1.36034099671656 ] } },
{ "type": "Feature", "properties": { "Name": "Hotel 81 - Lavender", "description": "", "HYPERLINK": "hotel81@hotel81.com.sg", "POSTALCODE": "338716", "KEEPERNAME": "Chu Poh Yong", "TOTALROOMS": "85", "ADDRESS": "85 Lavender Street", "INC_CRC": "0B72CAA8BAA6C2C6", "FMEL_UPD_D": "20210128110627" }, "geometry": { "type": "Point", "coordinates": [ 103.862351670102996, 1.31075782011892 ] } },
{ "type": "Feature", "properties": { "Name": "Hotel Clover 33 Jalan Sultan", "description": "", "HYPERLINK": "enquiries@hotelclover.com", "POSTALCODE": "198965", "KEEPERNAME": "Zhang YuanQing", "TOTALROOMS": "88", "ADDRESS": "33 Jalan Sultan", "INC_CRC": "CFA7AC672B10EDEC", "FMEL_UPD_D": "20210128110627" }, "geometry": { "type": "Point", "coordinates": [ 103.861729305373998, 1.30201280747959 ] } },
{ "type": "Feature", "properties": { "Name": "Hotel G Singapore", "description": "", "HYPERLINK": "gm@hotelgsingapore.com", "POSTALCODE": "188980", "KEEPERNAME": "Guillaume Jean-Marc Laurent Places", "TOTALROOMS": "308", "ADDRESS": "200 MIDDLE ROAD BIG HOTEL", "INC_CRC": "30B395B721E9B6E1", "FMEL_UPD_D": "20210128110627" }, "geometry": { "type": "Point", "coordinates": [ 103.851506467291998, 1.30091639007984 ] } },
{ "type": "Feature", "properties": { "Name": "Hotel Yan", "description": "", "HYPERLINK": "reservations@hotel-yan.com", "POSTALCODE": "207681", "KEEPERNAME": "Lim Kah Eng", "TOTALROOMS": "69", "ADDRESS": "162 Tyrwhitt Road", "INC_CRC": "079B039AEDFA3B46", "FMEL_UPD_D": "20210128110627" }, "geometry": { "type": "Point", "coordinates": [ 103.855108812764001, 1.30981355102668 ] } },
{ "type": "Feature", "properties": { "Name": "ibis Styles Singapore on Macpherson", "description": "", "HYPERLINK": "H9411@accor.com", "POSTALCODE": "368125", "KEEPERNAME": "Rolfe Shamila", "TOTALROOMS": "298", "ADDRESS": "401 Macpherson Road", "INC_CRC": "EC9428511F71C37B", "FMEL_UPD_D": "20210128110627" }, "geometry": { "type": "Point", "coordinates": [ 103.879294508881003, 1.33177053490393 ] } },
{ "type": "Feature", "properties": { "Name": "JEN Singapore Orchardgateway by Shangri-La", "description": "", "HYPERLINK": "singaporeorchardgateway@hoteljen.com", "POSTALCODE": "238858", "KEEPERNAME": "Kuok Oon Kwong", "TOTALROOMS": "499", "ADDRESS": "277 Orchard Road , # 10-01", "INC_CRC": "BE1CAD1F9EA0CAE3", "FMEL_UPD_D": "20210128110627" }, "geometry": { "type": "Point", "coordinates": [ 103.839224077004999, 1.30050954183517 ] } },
{ "type": "Feature", "properties": { "Name": "K2 Guesthouse", "description": "", "HYPERLINK": "hello@k2guesthouse.com", "POSTALCODE": "118146", "KEEPERNAME": "KAY SIEW HWA", "TOTALROOMS": "24", "ADDRESS": "15 SOUTH BUONA VISTA ROAD", "INC_CRC": "4036C00404CF8154", "FMEL_UPD_D": "20210128110627" }, "geometry": { "type": "Point", "coordinates": [ 103.786403408371001, 1.28061805876119 ] } },
{ "type": "Feature", "properties": { "Name": "Marina Bay Sands Singapore", "description": "", "HYPERLINK": "inquiries@marinabaysands.com", "POSTALCODE": "18956", "KEEPERNAME": "Pek Chin Siong", "TOTALROOMS": "2561", "ADDRESS": "1 Bayfront Avenue", "INC_CRC": "EE049C95B8D93424", "FMEL_UPD_D": "20210128110627" }, "geometry": { "type": "Point", "coordinates": [ 103.858308388607, 1.28233335098225 ] } },
{ "type": "Feature", "properties": { "Name": "Min Wah Hotel", "description": "", "HYPERLINK": "96ytlim@gmail.com", "POSTALCODE": "398676", "KEEPERNAME": "Lim Yeoh Toong", "TOTALROOMS": "97", "ADDRESS": "19 Lorong 22 Geylang", "INC_CRC": "36C8F402BD19E09E", "FMEL_UPD_D": "20210128110627" }, "geometry": { "type": "Point", "coordinates": [ 103.882461230624997, 1.31219823372169 ] } },
{ "type": "Feature", "properties": { "Name": "Nostalgia Hotel", "description": "", "HYPERLINK": "frontdesk@hotelnostalgia.com.sg", "POSTALCODE": "168727", "KEEPERNAME": "Ranjitha De Silva", "TOTALROOMS": "50", "ADDRESS": "77 Tiong Bahru Road", "INC_CRC": "711B8213261F0802", "FMEL_UPD_D": "20210128110627" }, "geometry": { "type": "Point", "coordinates": [ 103.833551413429007, 1.28509462357436 ] } },
{ "type": "Feature", "properties": { "Name": "Orchard Rendezvous Hotel, Singapore", "description": "", "HYPERLINK": "info@orh.com.sg", "POSTALCODE": "247905", "KEEPERNAME": "Wong Siew Ling", "TOTALROOMS": "388", "ADDRESS": "1 Tanglin Road", "INC_CRC": "A28ECA9D723C57F9", "FMEL_UPD_D": "20210128110627" }, "geometry": { "type": "Point", "coordinates": [ 103.827739432244996, 1.3065751631695 ] } },
{ "type": "Feature", "properties": { "Name": "Pasir Panjang Inn", "description": "", "HYPERLINK": "ppinn@pacific.net.sg", "POSTALCODE": "118741", "KEEPERNAME": "Ang Poh Seow", "TOTALROOMS": "54", "ADDRESS": "404 Pasir Panjang Road", "INC_CRC": "ACE2FE4B779F9B6F", "FMEL_UPD_D": "20210128110627" }, "geometry": { "type": "Point", "coordinates": [ 103.770167551417003, 1.29207833471118 ] } },
{ "type": "Feature", "properties": { "Name": "RedDoorz Plus @ Little India", "description": "", "HYPERLINK": "", "POSTALCODE": "209507", "KEEPERNAME": "AMIT SABERWAL", "TOTALROOMS": "80", "ADDRESS": "23 DICKSON ROAD, # 1-01-01 MOON 23 HOTEL", "INC_CRC": "97163266745A72F5", "FMEL_UPD_D": "20210128110627" }, "geometry": { "type": "Point", "coordinates": [ 103.854059862488, 1.3050887952847 ] } },
{ "type": "Feature", "properties": { "Name": "Royal India Hotel", "description": "", "HYPERLINK": "sales@royalindiahotel.com", "POSTALCODE": "207667", "KEEPERNAME": "Ee Kee Chai", "TOTALROOMS": "43", "ADDRESS": "88 Syed Alwi Road , # 01-02", "INC_CRC": "7C0288ACB8780567", "FMEL_UPD_D": "20210128110627" }, "geometry": { "type": "Point", "coordinates": [ 103.855672473306996, 1.30922887156542 ] } },
{ "type": "Feature", "properties": { "Name": "Sofitel Singapore City Centre", "description": "", "HYPERLINK": "", "POSTALCODE": "78885", "KEEPERNAME": "Wouter Frank De Graaf", "TOTALROOMS": "223", "ADDRESS": "9 WALLICH STREET", "INC_CRC": "877335F1F7B222E5", "FMEL_UPD_D": "20210128110627" }, "geometry": { "type": "Point", "coordinates": [ 103.845070104293001, 1.2769051570011 ] } }
]
}
